,Reporting_Entity,Facility_Name,State,Electricity_Production_GJ,Electricity_Production_MWh,Primary_Fuel,Year,Lat,Lng,Renewable
0,ACCIONA ENERGY OCEANIA PTY LTD,Gunning Wind Farm,NSW,567719.0,157700.0,Wind,2014-2015,-34.6905625,149.4270092,True
1,ACCIONA ENERGY OCEANIA PTY LTD,Royalla Solar Farm,ACT,213115.0,59199.0,Solar,2014-2015,-35.4897929,149.1430018,True
2,ACCIONA ENERGY OCEANIA PTY LTD,Waubra Wind Farm,VIC,2461803.0,683834.0,Wind,2014-2015,-37.3946388,143.6386011,True
4,AGL ENERGY LIMITED,Banimboola Hydro,VIC,137094.0,38082.0,Hydro,2014-2015,-36.5335771,147.4603458,True
5,AGL ENERGY LIMITED,Bayswater Power Station,NSW,50275548.0,13965430.0,Black Coal,2014-2015,-32.3925781,150.9490509,False
6,AGL ENERGY LIMITED,Bogong Power Station,VIC,266917.0,74144.0,Hydro,2014-2015,-36.8057885,147.2281158,True
7,AGL ENERGY LIMITED,Burrendong Hydro,NSW,27428.0,7619.0,Hydro,2014-2015,-32.6801776,149.1386215,True
10,AGL ENERGY LIMITED,Copeton Hydro,NSW,139785.0,38829.0,Hydro,2014-2015,-29.8466241,150.8866281,True
11,AGL ENERGY LIMITED,Dartmouth Hydro,VIC,1608089.0,446691.0,Hydro,2014-2015,-36.5324694,147.4961766,True
12,AGL ENERGY LIMITED,Eildon Hydro,VIC,710341.0,197317.0,Hydro,2014-2015,-37.2345677,145.9089916,True
13,AGL ENERGY LIMITED,Glenbawn Hydro,NSW,42254.0,11737.0,Hydro,2014-2015,-32.1080329,150.985732,True
14,AGL ENERGY LIMITED,Glenorchy Landfill Generation,TAS,43117.0,11977.0,Landfill Gas,2014-2015,-42.833056,147.275833,True
19,AGL ENERGY LIMITED,Hobart Landfill Generation,TAS,27374.0,7604.0,Landfill Gas,2014-2015,-42.8826055,147.3257196,True
20,AGL ENERGY LIMITED,Hunter Valley Gas Turbines,NSW,901.0,250.0,Gas,2014-2015,-32.1932173,151.700565,False
21,AGL ENERGY LIMITED,Kincumber Landfill Generation,NSW,14613.0,4059.0,Landfill Gas,2014-2015,-33.4689844,151.3898882,True
22,AGL ENERGY LIMITED,Liddell Power Station,NSW,24864251.0,6906736.0,Black Coal,2014-2015,-32.3715056,150.9773385,False
23,AGL ENERGY LIMITED,Loy Yang Power Station and Mine,VIC,58415084.0,16226412.0,Brown Coal,2014-2015,-38.2537069,146.5756631,False
24,AGL ENERGY LIMITED,Macarthur Wind Farm,VIC,3589748.0,997152.0,Wind,2014-2015,-38.0490795,142.1915163,True
25,AGL ENERGY LIMITED,McKay Creek Hydro,VIC,317552.0,88209.0,Hydro,2014-2015,45.5250549,-123.0049896,True
26,AGL ENERGY LIMITED,Moranbah Power Station,QLD,82912.0,23031.0,Coal Seam Methane,2014-2015,-22.0060858,148.0398332,False
27,AGL ENERGY LIMITED,Nyngan Solar Plant,NSW,33769.0,9380.0,Solar,2014-2015,-31.5662057,147.0707349,True
28,AGL ENERGY LIMITED,Oaklands Hill Wind Farm,VIC,526539.0,146261.0,Wind,2014-2015,-37.683252,142.551115,True
29,AGL ENERGY LIMITED,Rockingham Landfill Generation,WA,77364.0,21490.0,Landfill Gas,2014-2015,-32.2780969,115.7351399,True
30,AGL ENERGY LIMITED,Rubicon Hydro Scheme,VIC,167206.0,46446.0,Hydro,2014-2015,-37.3259849,145.8614196,True
31,AGL ENERGY LIMITED,Shoalhaven Landfill Generation,NSW,19739.0,5483.0,Landfill Gas,2014-2015,-35.0810677,150.4892292,True
33,AGL ENERGY LIMITED,Suncoast Biomass Generation Plant,QLD,3091.0,859.0,Macadamia Nut Shells,2014-2015,-22.575197,144.0847926,True
34,AGL ENERGY LIMITED,Torrens Island Power Station,SA,6057169.0,1682547.0,Gas/Diesel,2014-2015,-34.8065986,138.5231933,False
35,AGL ENERGY LIMITED,Wattle Point Wind Farm,SA,937578.0,260438.0,Wind,2014-2015,-35.1117422,137.7212617,True
36,AGL ENERGY LIMITED,Werribee Biogas Generator,VIC,196824.0,54673.0,Biogas,2014-2015,-37.8997995,144.6641401,True
39,AGL ENERGY LIMITED,Woy Woy Landfill Generation,NSW,31209.0,8669.0,Landfill Gas,2014-2015,-33.4887953,151.3259426,True
40,AGL ENERGY LIMITED,Yarrawonga Hydro,VIC,180662.0,50184.0,Hydro,2014-2015,-36.0260723,146.0003241,True
42,ALCOA AUSTRALIAN HOLDINGS PTY LTD,Alinta Pinjarra Generation Facility,WA,5900732.0,1639092.0,Gas,2014-2015,-32.6462926,115.9464342,False
43,ALCOA AUSTRALIAN HOLDINGS PTY LTD,Alinta Wagerup Generation Facility,WA,637048.0,176958.0,Gas/Diesel,2014-2015,-32.9266817,115.9020851,False
44,ALCOA AUSTRALIAN HOLDINGS PTY LTD,Anglesea Power Station,VIC,4536940.0,1260261.0,Brown Coal,2014-2015,-38.3879685,144.1815487,False
46,ALINTA ENERGY FINANCE PTY LTD,Augusta Power Stations,SA,9524596.0,2645721.0,Brown Coal,2014-2015,-30.0002315,136.2091547,False
47,ALINTA ENERGY FINANCE PTY LTD,Bairnsdale Power Station,VIC,539356.0,149821.0,Gas,2014-2015,-37.8428384,147.563966,False
48,ALINTA ENERGY FINANCE PTY LTD,Braemar Power Station,QLD,7907969.0,2196658.0,Coal Seam Methane,2014-2015,-27.1107842,150.9054673,False
49,ALINTA ENERGY FINANCE PTY LTD,Newman Power Station,WA,832806.0,231335.0,Gas,2014-2015,-23.3574915,119.7303373,False
50,ALINTA ENERGY FINANCE PTY LTD,Port Hedland Power Station,WA,1763554.0,489876.0,Gas,2014-2015,-20.4280016,118.5502998,False
52,APT PIPELINES LIMITED,Emu Downs Wind Farm,WA,913852.0,253848.0,Wind,2014-2015,-30.4756515,115.381241,True
54,ARROW ENERGY HOLDINGS PTY LTD,Braemar 2 Power Station,QLD,9370735.0,2602982.0,Coal Seam Methane,2014-2015,-27.1107842,150.9054673,False
56,ATCO AUSTRALIA PTY. LTD.,Bulwer Island Energy Partnership facility,QLD,,,Gas,2014-2015,-27.41756,153.1295793,False
57,ATCO AUSTRALIA PTY. LTD.,Karratha Power Station,WA,1706994.0,474165.0,Gas,2014-2015,-20.7336955,116.8447057,False
60,AUSTRALIAN CAPITAL EQUITY PTY LIMITED,LGP Belmont Administration & Kalamunda Facility,WA,20.0,6.0,Liquid Fuel,2014-2015,-31.9497631,115.9297417,False
61,AUSTRALIAN CAPITAL EQUITY PTY LIMITED,LGP Canning Vale Facility,WA,2380.0,661.0,Landfill Gas,2014-2015,-32.0887424,115.9177846,True
62,AUSTRALIAN CAPITAL EQUITY PTY LIMITED,LGP Red Hill Facility,WA,91876.0,25521.0,Landfill Gas,2014-2015,-31.8548072,116.0538776,True
63,AUSTRALIAN CAPITAL EQUITY PTY LIMITED,LGP Tamala Park Facility,WA,114770.0,31881.0,Landfill Gas,2014-2015,-31.704321,115.7349162,True
65,AXIA ENERGY AUSTRALIA PTY LTD,Smithfield Power Partnership,NSW,3486738.0,968538.0,Gas,2014-2015,-33.8535722,150.9406861,False
67,BG INTERNATIONAL (AUS) INVESTMENTS PTY LIMITED,Condamine Power Station,QLD,2754361.0,765100.0,Gas,2014-2015,-26.6681504,150.270009,False
69,BHP BILLITON IRON ORE PTY. LTD.,Yarnima Power Station IOP,WA,1652126.0,458924.0,Gas,2014-2015,-23.3435575,119.7109647,False
71,BLUEWATERS POWER 1 PTY LTD,Bluewaters Power 1,WA,6025829.0,1673841.0,Black Coal,2014-2015,-33.3297691,116.2265472,False
73,BLUEWATERS POWER 2 PTY LTD,Bluewaters Power 2,WA,6078158.0,1688377.0,Black Coal,2014-2015,-33.3297691,116.2265472,False
75,BPIH PTY LIMITED,Brookfield District Energy (GX) Pty Ltd,NSW,78204.0,21723.0,Gas,2014-2015,-31.2532183,146.921099,False
79,CAPE BYRON MANAGEMENT PTY LTD,Broadwater Power Plant,NSW,643940.0,178872.0,Bagasse,2014-2015,-29.0145838,153.4300366,True
80,CAPE BYRON MANAGEMENT PTY LTD,Condong Power Plant,NSW,375693.0,104359.0,Bagasse,2014-2015,-28.3117883,153.4363815,True
82,CLARKE ENERGY (AUSTRALIA) PTY. LTD.,Daandine Power Station,QLD,,,Coal Seam Methane,2014-2015,-27.0861935,150.9425679,False
84,CONTRACT POWER AUSTRALIA PTY LTD,FMG Cloud Break Mine Site Power Station,WA,643454.0,178737.0,Diesel,2014-2015,-22.3270529,119.3968821,False
85,CONTRACT POWER AUSTRALIA PTY LTD,Norseman Gold Power Station,WA,50926.0,14146.0,Diesel,2014-2015,-32.1977913,121.7788563,False
87,CS ENERGY LIMITED,Callide A Power Station,QLD,362952.0,100820.0,Black Coal,2014-2015,-24.2927187,150.4933758,False
88,CS ENERGY LIMITED,Callide B Power Station,QLD,12706326.0,3529535.0,Black Coal,2014-2015,-24.2927187,150.4933758,False
89,CS ENERGY LIMITED,Callide C Power Station,QLD,19988727.0,5552424.0,Black Coal,2014-2015,-24.2927187,150.4933758,False
90,CS ENERGY LIMITED,Kogan Creek Power Station,QLD,20633364.0,5731490.0,Black Coal,2014-2015,-26.9146137,150.746994,False
91,CS ENERGY LIMITED,Wivenhoe Power Station,QLD,72877.0,20244.0,Hydro,2014-2015,-27.3724152,152.6320267,True
93,CWF HOLDINGS PTY LTD,Collgar Wind Farm,WA,2566405.0,712890.0,Wind,2014-2015,-31.9509006,115.8496117,True
95,CWP RENEWABLES PTY LTD,Boco Rock Wind Farm Pty Ltd,NSW,751603.0,208779.0,Wind,2014-2015,-36.5769554,149.125867,True
96,CWP RENEWABLES PTY LTD,Taralga Wind Farm Pty Ltd,NSW,265563.0,73768.0,Wind,2014-2015,-34.4237104,149.8258649,True
98,DELTA ELECTRICITY,Brown Mountain Power Station,NSW,48431.0,13453.0,Hydro,2014-2015,-36.6098991,149.4800741,True
99,DELTA ELECTRICITY,Colongra PS,NSW,258467.0,71796.0,Gas,2014-2015,-33.2075171,151.5402519,False
100,DELTA ELECTRICITY,Vales Point Power Station,NSW,24972675.0,6936854.0,Black Coal,2014-2015,-33.1620493,151.5407221,False
102,DIAMANTINA HOLDING COMPANY PTY LIMITED,Diamantina Power Station,QLD,5410680.0,1502967.0,Gas,2014-2015,-20.7830295,139.4829711,False
104,ECOGEN HOLDINGS PTY LTD,Jeeralang Power Station,VIC,79794.0,22165.0,Gas,2014-2015,-38.2750317,146.4254869,False
105,ECOGEN HOLDINGS PTY LTD,Newport Power Station,VIC,342893.0,95248.0,Gas,2014-2015,-37.8411815,144.8944409,False
107,ELECTRICITY GENERATION AND RETAIL CORPORATION,Albany Wind Farm,WA,347600.0,96556.0,Wind,2014-2015,-35.0658656,117.7996621,True
108,ELECTRICITY GENERATION AND RETAIL CORPORATION,Bremer Bay Wind Diesel System,WA,6664.0,1851.0,Wind/Diesel,2014-2015,-34.3979041,119.3763011,False
109,ELECTRICITY GENERATION AND RETAIL CORPORATION,Cockburn Power Station,WA,2369340.0,658150.0,Gas,2014-2015,-32.2003779,115.7740725,False
110,ELECTRICITY GENERATION AND RETAIL CORPORATION,Collie Power Station ,WA,8061797.0,2239388.0,Black Coal,2014-2015,-33.341644,116.2622398,False
111,ELECTRICITY GENERATION AND RETAIL CORPORATION,Coral Bay Wind Diesel System,WA,12118.0,3366.0,Wind/Diesel,2014-2015,-23.1422976,113.7723112,False
112,ELECTRICITY GENERATION AND RETAIL CORPORATION,Denham Wind Farm,WA,6871.0,1909.0,Wind,2014-2015,-25.9299413,113.538149,True
113,ELECTRICITY GENERATION AND RETAIL CORPORATION,Esperance Wind Farm,WA,52851.0,14681.0,Wind,2014-2015,-33.8613953,121.8912724,True
114,ELECTRICITY GENERATION AND RETAIL CORPORATION,Geraldton Gas Turbine Station,WA,80.0,22.0,Gas,2014-2015,-28.7761346,114.611295,False
115,ELECTRICITY GENERATION AND RETAIL CORPORATION,Hopetoun Wind Diesel System,WA,19713.0,5476.0,Wind/Diesel,2014-2015,55.99556029999999,-3.4625834,False
116,ELECTRICITY GENERATION AND RETAIL CORPORATION,Kalbarri Photovoltaic,WA,81.0,23.0,Solar,2014-2015,-27.7115397,114.1713913,True
117,ELECTRICITY GENERATION AND RETAIL CORPORATION,Kalbarri Wind Farm,WA,15140.0,4206.0,Wind,2014-2015,-27.7115397,114.1713913,True
118,ELECTRICITY GENERATION AND RETAIL CORPORATION,Kalgoorlie Gas Turbine Station,WA,6739.0,1872.0,Gas,2014-2015,-30.749,121.466,False
119,ELECTRICITY GENERATION AND RETAIL CORPORATION,Kwinana Power Station,WA,3520116.0,977810.0,Gas,2014-2015,-32.2004954,115.774588,False
120,ELECTRICITY GENERATION AND RETAIL CORPORATION,Muja Power Station,WA,13831474.0,3842076.0,Black Coal,2014-2015,-33.446204,116.3065633,False
121,ELECTRICITY GENERATION AND RETAIL CORPORATION,Mungarra Gas Turbine Station,WA,348804.0,96890.0,Gas,2014-2015,-28.887904,115.118193,False
122,ELECTRICITY GENERATION AND RETAIL CORPORATION,Pinjar Gas Turbine Station,WA,1670548.0,464041.0,Gas,2014-2015,-31.62058739999999,115.8208094,False
123,ELECTRICITY GENERATION AND RETAIL CORPORATION,South West Cogeneration Joint Venture,WA,3568929.0,991369.0,Gas,2014-2015,-27.6728168,121.6283098,False
125,ELECTRICITY NETWORKS CORPORATION,Ravensthorpe Power Station,WA,701.0,195.0,Liquid Fuel,2014-2015,-33.578677,120.0456159,False
127,ENERGEX LIMITED,Energy Impact - Bromelton Peak Generation Plant,QLD,6745.0,1874.0,Liquid Fuel,2014-2015,-27.981644,152.9673844,False
130,ENERGY DEVELOPMENTS LIMITED,Appin CSM Power Station,NSW,588901.0,163584.0,Coal Seam Methane,2014-2015,-34.200914,150.7874904,False
131,ENERGY DEVELOPMENTS LIMITED,Ardyaloon Remote Power Station,WA,6385.0,1774.0,Liquid Fuel,2014-2015,-16.4469782,123.0597129,False
132,ENERGY DEVELOPMENTS LIMITED,Beagle Bay Remote Power Station,WA,5835.0,1621.0,Liquid Fuel,2014-2015,-27.6728168,121.6283098,False
133,ENERGY DEVELOPMENTS LIMITED,Belrose and Grange Avenue LFG Power Stations,NSW,46595.0,12943.0,Landfill Gas,2014-2015,-33.701442,150.8513512,True
134,ENERGY DEVELOPMENTS LIMITED,Berwick LFG Power Station,VIC,86977.0,24160.0,Landfill Gas,2014-2015,-38.0309443,145.3437469,True
135,ENERGY DEVELOPMENTS LIMITED,Bidyadanga Remote Power Staiton,WA,10466.0,2907.0,Liquid Fuel,2014-2015,-18.6844063,121.7777973,False
136,ENERGY DEVELOPMENTS LIMITED,Broadmeadows LFG Power Station,VIC,69413.0,19281.0,Landfill Gas,2014-2015,-37.6858788,144.9246674,True
137,ENERGY DEVELOPMENTS LIMITED,Brooklyn LFG Power Station,VIC,61195.0,16999.0,Landfill Gas,2014-2015,-37.8173492,144.8465361,True
138,ENERGY DEVELOPMENTS LIMITED,Broome LNG Power Station,WA,485698.0,134916.0,Gas/Diesel,2014-2015,-17.96182,122.236998,False
139,ENERGY DEVELOPMENTS LIMITED,Browns Plains LFG Power Station,QLD,40383.0,11218.0,Landfill Gas,2014-2015,-27.6624358,153.0527734,True
140,ENERGY DEVELOPMENTS LIMITED,Century Power Station,QLD,4393.0,1220.0,Diesel,2014-2015,-22.575197,144.0847926,False
141,ENERGY DEVELOPMENTS LIMITED,Clayton LFG Power Station,VIC,290315.0,80643.0,Landfill Gas,2014-2015,-37.9145479,145.127492,True
142,ENERGY DEVELOPMENTS LIMITED,Coober Pedy Remote Power Station,SA,42860.0,11906.0,Diesel,2014-2015,-29.013516,134.7544219,False
143,ENERGY DEVELOPMENTS LIMITED,Cue Remote Power Station,WA,6804.0,1890.0,Liquid Fuel,2014-2015,-27.6728168,121.6283098,False
144,ENERGY DEVELOPMENTS LIMITED,Derby LNG Power Station,WA,128739.0,35761.0,Gas/Diesel,2014-2015,-17.309288,123.6401839,False
145,ENERGY DEVELOPMENTS LIMITED,Djarandjin Remote Power Station,WA,5837.0,1621.0,Liquid Fuel,2014-2015,-16.514329,122.895699,False
146,ENERGY DEVELOPMENTS LIMITED,Eastern Creek LFG Power Station,NSW,58449.0,16236.0,Landfill Gas,2014-2015,-33.8102184,150.85064,True
148,ENERGY DEVELOPMENTS LIMITED,Fitzroy Crossing LNG Power Station,WA,52066.0,14463.0,Gas/Diesel,2014-2015,-18.19797,125.5670892,False
149,ENERGY DEVELOPMENTS LIMITED,Gascoyne Junction Remote Power Station,WA,2847.0,791.0,Liquid Fuel,2014-2015,-25.0497212,115.2097733,False
150,ENERGY DEVELOPMENTS LIMITED,German Creek CMM Power Station,QLD,1101467.0,305963.0,Waste Coal Mine Gas,2014-2015,-25.47614107456473,152.8968730508393,False
151,ENERGY DEVELOPMENTS LIMITED,Glennies Creek Power Station,NSW,326588.0,90719.0,Waste Coal Mine Gas,2014-2015,-32.4612156,151.1069328,False
152,ENERGY DEVELOPMENTS LIMITED,Halls Creek LNG Power Station,WA,41237.0,11455.0,Gas/Diesel,2014-2015,-18.2229842,127.6701399,False
153,ENERGY DEVELOPMENTS LIMITED,Highbury and Tea Tree Gully Power Stations,SA,12141.0,3373.0,Landfill Gas,2014-2015,-34.825415,138.7269016,True
154,ENERGY DEVELOPMENTS LIMITED,Jacks Gully LFG Power Station,NSW,56366.0,15657.0,Landfill Gas,2014-2015,-34.07673891273389,150.7422938198044,True
155,ENERGY DEVELOPMENTS LIMITED,Karumba Power Station,QLD,51753.0,14376.0,Diesel,2014-2015,-17.4855733,140.8461782,False
156,ENERGY DEVELOPMENTS LIMITED,Laverton Remote Power Station,WA,13825.0,3840.0,Liquid Fuel,2014-2015,-28.6259124,122.4014814,False
157,ENERGY DEVELOPMENTS LIMITED,Leonora Remote Power Station,WA,32000.0,8889.0,Gas,2014-2015,-28.8849715,121.3309059,False
158,ENERGY DEVELOPMENTS LIMITED,Looma Power Station,WA,9329.0,2591.0,Gas/Diesel,2014-2015,-18.0398016,124.1493803,False
159,ENERGY DEVELOPMENTS LIMITED,Lucas Heights 1 LFG Power Station,NSW,81911.0,22753.0,Landfill Gas,2014-2015,-34.0506403,150.9872444,True
160,ENERGY DEVELOPMENTS LIMITED,Lucas Heights 2 LFG Power Station,NSW,363270.0,100908.0,Landfill Gas,2014-2015,-34.0506403,150.9872444,True
161,ENERGY DEVELOPMENTS LIMITED,McArthur River Power Station,NT,1028823.0,285784.0,Gas,2014-2015,-16.11427123151219,136.3288903783971,False
162,ENERGY DEVELOPMENTS LIMITED,Meekatharra Remote Power Station,WA,23382.0,6495.0,Liquid Fuel,2014-2015,-26.5956611,118.4935984,False
163,ENERGY DEVELOPMENTS LIMITED,Menzies Remote Power Station,WA,2620.0,728.0,Liquid Fuel,2014-2015,-29.6935575,121.0288851,False
164,ENERGY DEVELOPMENTS LIMITED,Moranbah North CMM Power Station,QLD,1581863.0,439406.0,Waste Coal Mine Gas,2014-2015,-21.8853292,147.9657585,False
165,ENERGY DEVELOPMENTS LIMITED,Mt Magnet Remote Power Station,WA,12419.0,3450.0,Gas,2014-2015,-28.0652329,117.8487476,False
166,ENERGY DEVELOPMENTS LIMITED,Mugga Lane LFG Power Station,ACT,79427.0,22063.0,Landfill Gas,2014-2015,-35.3739879,149.1324352,True
167,ENERGY DEVELOPMENTS LIMITED,Oaky Creek Power Station,QLD,481153.0,133654.0,Coal Seam Methane,2014-2015,-28.1913043,152.9375365,False
168,ENERGY DEVELOPMENTS LIMITED,Pedler Creek LFG Power Station,SA,68940.0,19150.0,Landfill Gas,2014-2015,-30.0002315,136.2091547,True
169,ENERGY DEVELOPMENTS LIMITED,Pine Creek A Power Station,NT,651894.0,181082.0,Gas,2014-2015,-13.8226918,131.8344229,False
170,ENERGY DEVELOPMENTS LIMITED,Roghan Road LFG Power Station,QLD,4877.0,1355.0,Landfill Gas,2014-2015,-27.3408691,153.0398998,True
171,ENERGY DEVELOPMENTS LIMITED,Sandstone Remote Power Station,WA,1831.0,509.0,Liquid Fuel,2014-2015,-27.6728168,121.6283098,False
172,ENERGY DEVELOPMENTS LIMITED,Springvale LFG Power Station,VIC,60010.0,16669.0,Landfill Gas,2014-2015,-37.9487211,145.1529433,True
173,ENERGY DEVELOPMENTS LIMITED,Tahmoor Power Station,NSW,167241.0,46456.0,Waste Coal Mine Gas,2014-2015,-34.2473218,150.5772402,False
174,ENERGY DEVELOPMENTS LIMITED,Teralba Power Station,NSW,41260.0,11461.0,Coal Seam Methane,2014-2015,-32.963111,151.6014534,False
175,ENERGY DEVELOPMENTS LIMITED,Tower CSM Power Station,NSW,727327.0,202035.0,Coal Seam Methane,2014-2015,-31.2532183,146.921099,False
176,ENERGY DEVELOPMENTS LIMITED,Warmun Remote Power Station,WA,9744.0,2707.0,Liquid Fuel,2014-2015,-17.029704,128.2108177,False
177,ENERGY DEVELOPMENTS LIMITED,West Belconnen LFG Power Station,ACT,11163.0,3101.0,Landfill Gas,2014-2015,-35.2376521,149.0673217,True
178,ENERGY DEVELOPMENTS LIMITED,Wiluna Remote Power Station,WA,8252.0,2292.0,Liquid Fuel,2014-2015,-26.5943011,120.227356,False
179,ENERGY DEVELOPMENTS LIMITED,Wingfield 1 LFG Power Station,SA,57947.0,16096.0,Landfill Gas,2014-2015,-34.8413535,138.54613,True
180,ENERGY DEVELOPMENTS LIMITED,Wingfield 2 LFG Power Station,SA,59665.0,16574.0,Landfill Gas,2014-2015,-34.8413535,138.54613,True
181,ENERGY DEVELOPMENTS LIMITED,Yalgoo Remote Power Station,WA,2895.0,804.0,Liquid Fuel,2014-2015,-28.3508702,116.7658255,False
183,ENERGY WORLD CORPORATION LTD,Brewer Power Station,NT,169861.0,47184.0,Gas,2014-2015,-19.4914108,132.5509603,False
186,ENERGYAUSTRALIA HOLDINGS LIMITED,Hallett Power Station,SA,80235.0,22288.0,Gas/Diesel,2014-2015,-33.3522796,138.7536186,False
187,ENERGYAUSTRALIA HOLDINGS LIMITED,Mt Piper Power Station,NSW,22617530.0,6282647.0,Black Coal,2014-2015,-33.358008,150.0320006,False
188,ENERGYAUSTRALIA HOLDINGS LIMITED,Tallawarra Power Station,NSW,7496610.0,2082392.0,Gas,2014-2015,-34.5224899,150.8082317,False
189,ENERGYAUSTRALIA HOLDINGS LIMITED,Waterloo Wind Farm,SA,1063581.0,295439.0,Wind,2014-2015,-34.00106030000001,138.9110041,True
190,ENERGYAUSTRALIA HOLDINGS LIMITED,Yallourn Power Station,VIC,40512852.0,11253570.0,Brown Coal,2014-2015,-38.1814386,146.3479385,False
192,ERM POWER LIMITED,Newgen Neerabup Power Station,WA,449321.0,124811.0,Gas,2014-2015,-31.6711775,115.801039,False
193,ERM POWER LIMITED,Oakey Power Station,QLD,1796909.0,499141.0,Gas,2014-2015,-27.4182658,151.6810198,False
195,ESPERANCE POWER STATION PTY LTD,Esperance Power Station,WA,271834.0,75509.0,Gas/Diesel,2014-2015,-33.8613953,121.8912724,False
197,ESSENTIAL ENERGY,Essential Energy Generation Facilities,NSW,1795.0,499.0,Multiple sources,2014-2015,-31.2532183,146.921099,False
199,FPC 30 LIMITED,FPC Green Energy,QLD,355463.0,98740.0,Biofuel,2014-2015,-27.735318,153.327776,True
201,GOLDFIELDS POWER PTY LTD,Parkeston Power Station,WA,814460.0,226239.0,Gas/Diesel,2014-2015,-30.7269451,121.4974951,False
203,GSP ENERGY PTY LTD,Blayney Wind Farm,NSW,72296.0,20082.0,Wind,2014-2015,-33.619909,149.1888872,True
204,GSP ENERGY PTY LTD,Burrinjuck Power Station,NSW,305092.0,84748.0,Hydro,2014-2015,-34.9815388,148.617713,True
205,GSP ENERGY PTY LTD,Crookwell Wind Farm,NSW,28521.0,7923.0,Wind,2014-2015,-34.5411791,149.5954639,True
206,GSP ENERGY PTY LTD,Hume Power Station,NSW,755051.0,209736.0,Hydro,2014-2015,-31.2532183,146.921099,True
207,GSP ENERGY PTY LTD,Keepit Power Station,NSW,10253.0,2848.0,Hydro,2014-2015,-30.8813898,150.4909994,True
209,HRL LIMITED,Energy Brix Australia Corporation,VIC,150097.0,41694.0,Brown Coal,2014-2015,-38.237944,146.398531,False
211,HYDRO POWER PTY. LIMITED,Wyangala A,NSW,138482.0,38467.0,Hydro,2014-2015,-33.9626487,148.9542551,True
213,HYDRO-ELECTRIC CORPORATION,Bastyan Hydro Power Station,TAS,1289717.0,358255.0,Hydro,2014-2015,-41.7360047,145.5318835,True
214,HYDRO-ELECTRIC CORPORATION,Butlers Gorge Hydro Power Station,TAS,330501.0,91806.0,Hydro,2014-2015,-42.28059469999999,146.3151456,True
215,HYDRO-ELECTRIC CORPORATION,Catagunya Hydro Power Station,TAS,781824.0,217173.0,Hydro,2014-2015,-42.4376122,146.5621389,True
216,HYDRO-ELECTRIC CORPORATION,Cethana Hydro Power Station,TAS,870760.0,241878.0,Hydro,2014-2015,-41.4767384,146.1328194,True
218,HYDRO-ELECTRIC CORPORATION,Devils Gate Hydro Power Station,TAS,942101.0,261695.0,Hydro,2014-2015,-41.3500366,146.2647857,True
220,HYDRO-ELECTRIC CORPORATION,Flinders Island Power Station,TAS,13110.0,3642.0,Wind/Diesel,2014-2015,-40.1163649,148.0288719,False
222,HYDRO-ELECTRIC CORPORATION,John Butters Hydro Power Station,TAS,1766518.0,490699.0,Hydro,2014-2015,-42.1548711,145.5345778,True
223,HYDRO-ELECTRIC CORPORATION,King Island Power Station,TAS,45436.0,12621.0,Wind/Diesel,2014-2015,-39.87534770000001,143.9370758,False
224,HYDRO-ELECTRIC CORPORATION,Lake Echo Hydro Power Station,TAS,120795.0,33554.0,Hydro,2014-2015,-42.1581419,146.6456158,True
225,HYDRO-ELECTRIC CORPORATION,Lake Margaret Lower Hydro Power station,TAS,20435.0,5676.0,Hydro,2014-2015,-42.0039252,145.5442864,True
226,HYDRO-ELECTRIC CORPORATION,Lake Margaret Upper Hydro Power Station,TAS,170131.0,47259.0,Hydro,2014-2015,-42.0039252,145.5442864,True
227,HYDRO-ELECTRIC CORPORATION,Lemonthyme Hydro Power Station,TAS,926469.0,257353.0,Hydro,2014-2015,-41.5746481,146.1643107,True
228,HYDRO-ELECTRIC CORPORATION,Liapootah Hydro Power Station,TAS,1491643.0,414345.0,Hydro,2014-2015,-42.3182578,146.4726908,True
230,HYDRO-ELECTRIC CORPORATION,Meadowbank Hydro Power Station,TAS,158933.0,44148.0,Hydro,2014-2015,-42.6362629,146.8488872,True
231,HYDRO-ELECTRIC CORPORATION,Paloona Hydro Power Station,TAS,335083.0,93079.0,Hydro,2014-2015,-41.2581401,146.2699943,True
232,HYDRO-ELECTRIC CORPORATION,Parangana Hydro Power Station,TAS,15066.0,4185.0,Hydro,2014-2015,-42.0409059,146.8087322,True
233,HYDRO-ELECTRIC CORPORATION,Poatina Hydro Power Station,TAS,3798355.0,1055099.0,Hydro,2014-2015,-41.7958243,146.9610493,True
236,HYDRO-ELECTRIC CORPORATION,Rowallan Hydro Power Station,TAS,84911.0,23586.0,Hydro,2014-2015,-41.7294863,146.2175479,True
238,HYDRO-ELECTRIC CORPORATION,Tarraleah Hydro Power Station,TAS,2275240.0,632011.0,Hydro,2014-2015,-42.301225,146.4503471,True
239,HYDRO-ELECTRIC CORPORATION,Tods Corner Hydro Power Station,TAS,20731.0,5759.0,Hydro,2014-2015,-41.9695227,146.796318,True
240,HYDRO-ELECTRIC CORPORATION,Trevallyn Hydro Power Station,TAS,1256107.0,348919.0,Hydro,2014-2015,-41.43540950000001,147.1197143,True
242,HYDRO-ELECTRIC CORPORATION,Tungatinah Hydro Power Station,TAS,1530728.0,425202.0,Hydro,2014-2015,-42.2967833,146.4566074,True
243,HYDRO-ELECTRIC CORPORATION,Wayatinah Hydro Power Station,TAS,874109.0,242808.0,Hydro,2014-2015,-42.3886455,146.4997426,True
244,HYDRO-ELECTRIC CORPORATION,Wilmot Hydro Power Station,TAS,411351.0,114264.0,Hydro,2014-2015,-42.0409059,146.8087322,True
246,IFM RENEWABLE ENERGY PTY LTD,Challicum Hills Wind Farm,VIC,487533.0,135426.0,Wind,2014-2015,-37.3887311,143.0775131,True
248,IFM RENEWABLE ENERGY PTY LTD,Codrington Wind Farm,VIC,160914.0,44698.0,Wind,2014-2015,-38.2727138,141.9730619,True
249,IFM RENEWABLE ENERGY PTY LTD,Eildon Pondage Hydro,VIC,53020.0,14728.0,Hydro,2014-2015,-37.2429628,145.897452,True
250,IFM RENEWABLE ENERGY PTY LTD,Glenmaggie Hydro,VIC,24404.0,6779.0,Hydro,2014-2015,-37.8758483,146.7174016,True
251,IFM RENEWABLE ENERGY PTY LTD,Ord Hydro,WA,742103.0,206140.0,Hydro,2014-2015,-16.1200015,128.738173,True
252,IFM RENEWABLE ENERGY PTY LTD,Portland Wind Farms,VIC,1483286.0,412024.0,Wind,2014-2015,-38.3644104,141.6251525,True
253,IFM RENEWABLE ENERGY PTY LTD,The Drop Hydro,NSW,28205.0,7835.0,Hydro,2014-2015,-35.7761274,145.7533079,True
254,IFM RENEWABLE ENERGY PTY LTD,William Hovell Hydro,VIC,10659.0,2961.0,Hydro,2014-2015,-36.9252158,146.3894175,True
255,IFM RENEWABLE ENERGY PTY LTD,Yambuk Wind Farm,VIC,324867.0,90241.0,Wind,2014-2015,-38.3644104,141.6251525,True
257,INFIGEN ENERGY LIMITED,Alinta Wind Farm,WA,1190284.0,330634.0,Wind,2014-2015,-28.9024923,114.8927165,True
258,INFIGEN ENERGY LIMITED,Capital East Solar Farm,NSW,689.0,191.0,Solar,2014-2015,-31.2532183,146.921099,True
259,INFIGEN ENERGY LIMITED,Capital Wind Farm,NSW,1184184.0,328940.0,Wind,2014-2015,-35.1661165,149.518277,True
261,INFIGEN ENERGY LIMITED,Woodlawn Wind Farm,NSW,462471.0,128464.0,Wind,2014-2015,-35.0954285,149.5789486,True
263,IPM (KWINANA) PTY LTD,Kwinana Cogeneration Plant,WA,3212159.0,892266.0,Gas,2014-2015,-31.9505048,115.8604867,False
265,IPM AUSTRALIA LIMITED,Loy Yang B Power Station,VIC,31039276.0,8622021.0,Brown Coal,2014-2015,-38.2567843,146.5860271,False
267,LMS ENERGY PTY LTD,Albury Renewable Energy Facility,NSW,28779.0,7994.0,Landfill Gas,2014-2015,-36.0751193,146.9094852,True
268,LMS ENERGY PTY LTD,Atlas Renewable Energy Facility,WA,16710.0,4642.0,Landfill Gas,2014-2015,-27.6728168,121.6283098,True
269,LMS ENERGY PTY LTD,Awaba Renewable Energy Facility,NSW,33021.0,9173.0,Landfill Gas,2014-2015,-33.0086146,151.5475816,True
270,LMS ENERGY PTY LTD,Ballarat Renewable Energy Facility,VIC,18286.0,5079.0,Landfill Gas,2014-2015,-37.5621587,143.8502556,True
271,LMS ENERGY PTY LTD,Bendigo Renewable Energy Facility,VIC,14097.0,3916.0,Solar,2014-2015,-36.75961960000001,144.2785764,True
272,LMS ENERGY PTY LTD,Birkdale Renewable Energy Facility,QLD,24124.0,6701.0,Landfill Gas,2014-2015,-27.4935931,153.2137869,True
273,LMS ENERGY PTY LTD,Darwin Renewable Energy Facility,NT,32365.0,8990.0,Landfill Gas,2014-2015,-12.4637333,130.8444446,True
274,LMS ENERGY PTY LTD,Eastern Creek 2 Renewable Energy Facility,NSW,229019.0,63616.0,Landfill Gas,2014-2015,-33.8102184,150.85064,True
275,LMS ENERGY PTY LTD,Hampton Park Renewable Energy Facility,VIC,220584.0,61273.0,Landfill Gas,2014-2015,-38.032286,145.2678469,True
276,LMS ENERGY PTY LTD,Ipswich Renewable Energy Facility,QLD,30219.0,8394.0,Landfill Gas,2014-2015,-27.614614,152.7608421,True
277,LMS ENERGY PTY LTD,Mornington Peninsula Renewable Energy Facility,VIC,20560.0,5711.0,Landfill Gas,2014-2015,-38.2854053,145.093449,True
278,LMS ENERGY PTY LTD,Newcastle Renewable Energy Facility,NSW,64817.0,18005.0,Landfill Gas,2014-2015,-32.9282712,151.7816802,True
280,LMS ENERGY PTY LTD,Rochedale Renewable Energy Facility,QLD,122074.0,33909.0,Landfill Gas,2014-2015,-27.56924,153.1164813,True
281,LMS ENERGY PTY LTD,Shepparton Renewable Energy Facility,VIC,16923.0,4701.0,Landfill Gas,2014-2015,-36.3821418,145.4072272,True
282,LMS ENERGY PTY LTD,South Cardup Renewable Energy Facility,WA,94101.0,26139.0,Landfill Gas,2014-2015,-32.2577875,115.9963935,True
283,LMS ENERGY PTY LTD,Stapylton Renewable Energy Facility,QLD,15768.0,4380.0,Landfill Gas,2014-2015,-27.7295742,153.2388459,True
284,LMS ENERGY PTY LTD,Suntown Renewable Energy Facility,QLD,135.0,38.0,Landfill Gas,2014-2015,-22.575197,144.0847926,True
285,LMS ENERGY PTY LTD,Swanbank Renewable Energy Facility,QLD,34266.0,9518.0,Landfill Gas,2014-2015,-27.6397754,152.8240562,True
286,LMS ENERGY PTY LTD,Tweed Shire Renewable Energy Facility,NSW,6224.0,1729.0,Landfill Gas,2014-2015,-28.3541283,153.3446649,True
287,LMS ENERGY PTY LTD,Wollert Renewable Energy Facility,VIC,196497.0,54583.0,Landfill Gas,2014-2015,-37.6085118,145.0313459,True
289,LMS ENERGY PTY LTD,Wyong Renewable Energy Facility,NSW,60714.0,16865.0,Landfill Gas,2014-2015,-33.2843475,151.4249427,True
291,MACQUARIE GENERATION ,Bayswater Power Station,NSW,11250900.0,3125250.0,Black Coal,2014-2015,-32.3925781,150.9490509,False
292,MACQUARIE GENERATION ,Hunter Valley Gas Turbines,NSW,238.0,66.0,Gas,2014-2015,-32.1932173,151.700565,False
293,MACQUARIE GENERATION ,Liddell Power Station,NSW,4182213.0,1161726.0,Black Coal,2014-2015,-32.3715056,150.9773385,False
295,MERIDIAN ENERGY AUSTRALIA PTY LIMITED,Mt Mercer Wind farm Pty Ltd,VIC,1259336.0,349816.0,Wind,2014-2015,-37.8318698,143.8884633,True
296,MERIDIAN ENERGY AUSTRALIA PTY LIMITED,Mt Millar Wind Farm Pty Ltd,SA,672546.0,186818.0,Wind,2014-2015,-33.6255531,136.7039082,True
298,MITSUI & CO (AUSTRALIA) LTD,Bald Hills Wind Farm,VIC,237597.0,65999.0,Wind,2014-2015,-38.7478299,145.9494813,True
300,MOMENTUM ENERGY PTY LIMITED,Alfred Hospital Cogeneration Plant,VIC,56229.0,15619.0,Gas,2014-2015,-37.846154,144.9827473,False
301,MOMENTUM ENERGY PTY LIMITED,Dandenong Hospital Cogeneration Plant,VIC,54404.0,15112.0,Gas,2014-2015,-37.976484,145.2192169,False
302,MOMENTUM ENERGY PTY LIMITED,Geelong Hospital Cogeneration Plant,VIC,55751.0,15486.0,Gas,2014-2015,-38.1521039,144.3654034,False
303,MOMENTUM ENERGY PTY LIMITED,Royal Melbourne Hospital Cogeneration Plant,VIC,114442.0,31789.0,Gas,2014-2015,-37.7986657,144.955973,False
306,MORTONS LANE WIND FARM (HOLDING) PTY LTD,Mortons Lane Windfarm Pty Ltd,VIC,224297.0,62305.0,Wind,2014-2015,-37.83531900000001,142.4662279,True
308,NATIONAL POWER AUSTRALIA INVESTMENTS LIMITED,Hazelwood Power Station,VIC,39489921.0,10969423.0,Brown Coal,2014-2015,-38.272468,146.3919257,False
310,NEW GULLEN RANGE WIND FARM  (HOLDING) PTY LTD,New Gullen Range Wind Farm Pty Ltd,NSW,1295661.0,359906.0,Wind,2014-2015,-33.863638,151.2049168,True
312,NEWGEN KWINANA HOLDINGS PTY LTD,Kwinana Gas Fired Power Station,WA,7750392.0,2152887.0,Gas,2014-2015,-32.2320792,115.7787256,False
314,NRG VICTORIA I PTY LTD,Gladstone Power Station,QLD,23336871.0,6482464.0,Black Coal,2014-2015,-23.8487488,151.2183353,False
316,ORIGIN ENERGY LIMITED,Australand,NSW,4031.0,1120.0,Gas,2014-2015,-31.2532183,146.921099,False
317,ORIGIN ENERGY LIMITED,Ballarat Solar Park,VIC,658.0,183.0,Solar,2014-2015,-37.5621587,143.8502556,True
318,ORIGIN ENERGY LIMITED,Bendigo Solar Park,VIC,1881.0,523.0,Solar,2014-2015,-36.75961960000001,144.2785764,True
319,ORIGIN ENERGY LIMITED,Blackmores,NSW,4190.0,1164.0,Gas,2014-2015,-31.2532183,146.921099,False
320,ORIGIN ENERGY LIMITED,Bond,NSW,4349.0,1208.0,Gas,2014-2015,-31.2532183,146.921099,False
321,ORIGIN ENERGY LIMITED,Chifley Square,NSW,4395.0,1221.0,Gas,2014-2015,-33.8659402,151.2110977,False
322,ORIGIN ENERGY LIMITED,Cullerin Wind Farm,NSW,325681.0,90467.0,Wind,2014-2015,-34.8180225,149.399069,True
323,ORIGIN ENERGY LIMITED,Dandenong,VIC,13681.0,3800.0,Gas,2014-2015,-37.9847811,145.2139907,False
324,ORIGIN ENERGY LIMITED,Darling Downs Power Station,QLD,15616147.0,4337819.0,Gas,2014-2015,-27.1164455,150.8954925,False
326,ORIGIN ENERGY LIMITED,Eraring Power Station,NSW,51539324.0,14316479.0,Black Coal,2014-2015,-33.0619324,151.5197469,False
327,ORIGIN ENERGY LIMITED,Exhibition Street,VIC,11341.0,3150.0,Gas,2014-2015,-37.8116895,144.9704421,False
328,ORIGIN ENERGY LIMITED,Kent Street,NSW,11297.0,3138.0,Gas,2014-2015,-33.8666677,151.2043583,False
330,ORIGIN ENERGY LIMITED,Ladbroke Grove Power Station,SA,663862.0,184406.0,Gas,2014-2015,-37.4567985,140.7829834,False
331,ORIGIN ENERGY LIMITED,Mirvac,NSW,17071.0,4742.0,Gas,2014-2015,-31.2532183,146.921099,False
332,ORIGIN ENERGY LIMITED,Mortlake Power Station,VIC,4188517.0,1163477.0,Gas,2014-2015,-38.063061,142.6679099,False
333,ORIGIN ENERGY LIMITED,Mount,NSW,5847.0,1624.0,Gas,2014-2015,-31.2532183,146.921099,False
334,ORIGIN ENERGY LIMITED,Mt Stuart Power Station,QLD,110955.0,30821.0,Kerosene,2014-2015,-19.3379375,146.8513486,False
335,ORIGIN ENERGY LIMITED,Quarantine Power Station,SA,774888.0,215247.0,Gas,2014-2015,-34.7801742,138.5221099,False
336,ORIGIN ENERGY LIMITED,Roma Power Station,QLD,746188.0,207274.0,Gas,2014-2015,-26.5710799,148.7856852,False
337,ORIGIN ENERGY LIMITED,Shoalhaven Scheme,NSW,276441.0,76789.0,Hydro,2014-2015,-35.0810677,150.4892292,True
338,ORIGIN ENERGY LIMITED,Stockland Headquarters,NSW,4647.0,1291.0,Gas,2014-2015,-31.2532183,146.921099,False
339,ORIGIN ENERGY LIMITED,University of NSW,NSW,8740.0,2428.0,Gas,2014-2015,-33.917347,151.2312675,False
340,ORIGIN ENERGY LIMITED,Uranquinty Power Station,NSW,1537782.0,427162.0,Gas,2014-2015,-35.1793949,147.2149902,False
342,OZGEN HOLDINGS AUSTRALIA PTY LTD,Callide C Power Station (facility),QLD,19988727.0,5552424.0,Black Coal,2014-2015,-24.2927187,150.4933758,False
343,OZGEN HOLDINGS AUSTRALIA PTY LTD,Millmerran Power Station (facility),QLD,23865350.0,6629264.0,Black Coal,2014-2015,-27.9619619,151.2790597,False
345,PELICAN POINT POWER LIMITED,Pelican Point Power Station,SA,3708417.0,1030116.0,Gas,2014-2015,-34.7647018,138.5051574,False
347,POWER AND WATER CORPORATION,Katherine Region,NT,63066.0,17518.0,Multiple sources,2014-2015,-14.6313686,132.0781796,False
348,POWER AND WATER CORPORATION,Northern (Darwin) Region,NT,224073.0,62243.0,Multiple sources,2014-2015,-12.4637333,130.8444446,False
350,POWER AND WATER CORPORATION,Southern Region,NT,100879.0,28022.0,Multiple sources,2014-2015,-19.4914108,132.5509603,False
352,POWER GENERATION CORPORATION,Channel Island Power Station,NT,3520970.0,978047.0,Gas,2014-2015,-12.5550166,130.8663184,False
353,POWER GENERATION CORPORATION,Katherine Power Station,NT,55966.0,15546.0,Gas,2014-2015,-19.4914108,132.5509603,False
354,POWER GENERATION CORPORATION,Kings Canyon,NT,6202.0,1723.0,Solar,2014-2015,-24.2552941,131.5700131,True
355,POWER GENERATION CORPORATION,Owen Springs Power Station,NT,286571.0,79603.0,Gas,2014-2015,-23.8632482,133.8253457,False
356,POWER GENERATION CORPORATION,Ron Goodin Power Station,NT,334973.0,93048.0,Gas,2014-2015,-19.4914108,132.5509603,False
357,POWER GENERATION CORPORATION,Tennant Creek Power Station,NT,109184.0,30329.0,Gas,2014-2015,-19.64591,134.1909565,False
358,POWER GENERATION CORPORATION,Weddell Power Station,NT,1576552.0,437931.0,Gas,2014-2015,-12.5772143,130.9502033,False
359,POWER GENERATION CORPORATION,Yulara Power Station,NT,86710.0,24086.0,Gas/Diesel,2014-2015,-25.2320231,130.9913732,False
361,PRATT CONSOLIDATED HOLDINGS PTY. LTD.,Visy Energy - Coolaroo Co-gen,VIC,57190.0,15886.0,Biofuel,2014-2015,-37.6612312,144.9370304,True
363,RATCH - AUSTRALIA CORPORATION LIMITED,Kemerton Power Station,WA,302277.0,83966.0,Gas/Diesel,2014-2015,-33.1633786,115.7807467,False
365,RATCH - AUSTRALIA CORPORATION LIMITED,Toora Wind Farm,VIC,186002.0,51667.0,Wind,2014-2015,-38.6534438,146.3402295,True
366,RATCH - AUSTRALIA CORPORATION LIMITED,Townsville Power Station,QLD,290779.0,80772.0,Gas,2014-2015,-19.20158,146.6183471,False
367,RATCH - AUSTRALIA CORPORATION LIMITED,Windy Hill Wind Farm,QLD,112473.0,31243.0,Wind,2014-2015,-17.5945918,145.5313612,True
369,REGIONAL POWER CORPORATION,Carnarvon Power Station,WA,165889.0,46080.0,Gas,2014-2015,-24.8838363,113.6570584,False
370,REGIONAL POWER CORPORATION,Horizon Power Aggregated Minor Power Stations,WA,42232.0,11731.0,Diesel,2014-2015,-27.6728168,121.6283098,False
371,REGIONAL POWER CORPORATION,South Hedland Temporary Generation Power Station,WA,215850.0,59958.0,Gas,2014-2015,-20.4072579,118.5965289,False
373,RIO TINTO LIMITED,Paraburdoo Power Station,WA,2051703.0,569918.0,Gas,2014-2015,-23.2007259,117.6714611,False
374,RIO TINTO LIMITED,West Angelas Power Station,WA,2247.0,624.0,Gas,2014-2015,-23.1777653,118.7617779,False
375,RIO TINTO LIMITED,Yurralyi Maya Power Station,WA,3518017.0,977227.0,Gas,2014-2015,-20.7637215,116.7427853,False
377,ROYALLA HOLDINGS ASSET PTY LTD,Royalla Solar Farm,ACT,49475.0,13743.0,Solar,2014-2015,-35.4897929,149.1430018,True
379,SANTOS LTD,Wilga Park Power Station,NSW,194465.0,54018.0,Coal Seam Methane,2014-2015,-30.3634841,149.6771233,False
381,SENVION HOLDINGS PTY LTD,Wonthaggi Wind Farm,VIC,102127.0,28369.0,Wind,2014-2015,-38.6073719,145.547975,True
383,SHENHUA CLEAN ENERGY HOLDINGS PTY LTD,Musselroe Wind Farm Pty Ltd,TAS,1900382.0,527884.0,Wind,2014-2015,-40.7803916,148.0104827,True
384,SHENHUA CLEAN ENERGY HOLDINGS PTY LTD,Woolnorth Bluff point Wind Farm Pty Ltd,TAS,872765.0,242435.0,Wind,2014-2015,-40.7396138,144.6893962,True
385,SHENHUA CLEAN ENERGY HOLDINGS PTY LTD,Woolnorth Studland Bay Wind Farm Pty Ltd,TAS,1008270.0,280075.0,Wind,2014-2015,-40.7848399,144.7294621,True
387,SNOWTOWN SOUTH WIND FARM PTY. LTD.,SNOWTOWN SOUTH WIND FARM,SA,1538563.0,427379.0,Wind,2014-2015,-33.7809175,138.2149099,True
389,SNOWTOWN WIND FARM PTY LTD,Snowtown Wind Farm,SA,1229676.0,341577.0,Wind,2014-2015,-33.7140884,138.1408256,True
391,SNOWTOWN WIND FARM STAGE 2 PTY. LTD.,SNOWTOWN WIND FARM STAGE 2,SA,1493388.0,414830.0,Wind,2014-2015,-33.7140884,138.1408256,True
393,SNOWY HYDRO LIMITED,Angaston Power Station,SA,5951.0,1653.0,Liquid Fuel,2014-2015,-30.0002315,136.2091547,False
394,SNOWY HYDRO LIMITED,Colongra Power Station,NSW,7027.0,1952.0,Gas,2014-2015,-33.2094402,151.5457289,False
395,SNOWY HYDRO LIMITED,HEZ Power Station,NSW,840.0,233.0,Diesel,2014-2015,-32.8358078,151.4503288,False
396,SNOWY HYDRO LIMITED,Laverton North Power Station,VIC,4119.0,1144.0,Gas,2014-2015,-37.8410186,144.7875213,False
397,SNOWY HYDRO LIMITED,Lonsdale/Port Stanvac Power Station,SA,13511.0,3753.0,Diesel,2014-2015,-35.1102132,138.4909081,False
398,SNOWY HYDRO LIMITED,Snowy Hydro Ltd,NSW,9322679.0,2589633.0,Hydro,2014-2015,-31.2532183,146.921099,True
401,STANWELL CORPORATION LIMITED,Barron Gorge Power Station,QLD,625416.0,173727.0,Hydro,2014-2015,-16.8509999,145.6468624,True
402,STANWELL CORPORATION LIMITED,Kareeya Power Station,QLD,1614214.0,448393.0,Hydro,2014-2015,-17.767023,145.5780181,True
403,STANWELL CORPORATION LIMITED,Mackay Gas Turbine,QLD,1049.0,291.0,Diesel,2014-2015,-21.1446265,149.1589441,False
404,STANWELL CORPORATION LIMITED,Mica Creek Power Station,QLD,2316247.0,643402.0,Gas,2014-2015,-20.7784961,139.489875,False
405,STANWELL CORPORATION LIMITED,Stanwell Power Station,QLD,31516125.0,8754479.0,Black Coal,2014-2015,-23.5091325,150.3208166,False
406,STANWELL CORPORATION LIMITED,Swanbank E Power Station,QLD,3430389.0,952886.0,Gas,2014-2015,-27.6552772,152.8182067,False
407,STANWELL CORPORATION LIMITED,Tarong Power Stations,QLD,27422475.0,7617354.0,Black Coal,2014-2015,-26.7813053,151.9144592,False
409,SYNERGEN POWER PTY LIMITED,Dry Creek Power Station,SA,17591.0,4886.0,Gas,2014-2015,-34.8474882,138.5818107,False
410,SYNERGEN POWER PTY LIMITED,Mintaro Power Station,SA,25681.0,7134.0,Gas,2014-2015,-33.9181674,138.7232044,False
411,SYNERGEN POWER PTY LIMITED,Port Lincoln Power Station,SA,1386.0,385.0,Diesel,2014-2015,-34.7226381,135.8597449,False
412,SYNERGEN POWER PTY LIMITED,Snuggery Power Station,SA,1350.0,375.0,Diesel,2014-2015,-30.0002315,136.2091547,False
414,TRANSALTA ENERGY (AUSTRALIA) PTY LTD,Kalgoorlie Power Station,WA,581978.0,161661.0,Gas,2014-2015,-30.749,121.466,False
415,TRANSALTA ENERGY (AUSTRALIA) PTY LTD,Kambalda Power Station,WA,651671.0,181020.0,Gas,2014-2015,-31.201572,121.662514,False
416,TRANSALTA ENERGY (AUSTRALIA) PTY LTD,Leinster Power Station,WA,1011064.0,280851.0,Gas/Diesel,2014-2015,-27.9160091,120.6991137,False
417,TRANSALTA ENERGY (AUSTRALIA) PTY LTD,Mt Keith Power Station,WA,1106066.0,307241.0,Gas,2014-2015,-27.281731,120.501701,False
418,TRANSALTA ENERGY (AUSTRALIA) PTY LTD,Solomon Power Station,WA,864667.0,240185.0,Gas/Diesel,2014-2015,-27.6728168,121.6283098,False
420,WATER CORPORATION,Cocos Keeling Islands Generation,WA,20311.0,5642.0,Liquid Fuel,2014-2015,47.7510741,-120.7401386,False
422,WORLEYPARSONS LIMITED,Exmouth Power Station,WA,81850.0,22736.0,Gas,2014-2015,-21.9459567,114.128481,False
1,ACCIONA ENERGY OCEANIA PTY. LTD.,Gunning Wind Farm,NSW,601740.0,167150.0,Wind,2017-2018,-34.6905625,149.4270092,True
2,ACCIONA ENERGY OCEANIA PTY. LTD.,Mt Gellibrand Wind Farm,VIC,4320.0,1200.0,Wind,2017-2018,-38.2327778,143.7922222,True
3,ACCIONA ENERGY OCEANIA PTY. LTD.,Waubra Wind Farm,VIC,2317673.0,643798.0,Wind,2017-2018,-37.3946388,143.6386011,True
5,AGL ENERGY LIMITED,Banimboola Hydro,VIC,11089.0,3080.0,Hydro,2017-2018,-36.5335771,147.4603458,True
6,AGL ENERGY LIMITED,Bayswater Power Station,NSW,55964880.0,15545800.0,Black Coal,2017-2018,-32.3925781,150.9490509,False
7,AGL ENERGY LIMITED,Bogong Power Station,VIC,290885.0,80801.0,Hydro,2017-2018,-36.8057885,147.2281158,True
8,AGL ENERGY LIMITED,Broken Hill Solar Plant,NSW,470545.0,130707.0,Solar,2017-2018,-31.985972,141.3929982,True
9,AGL ENERGY LIMITED,Burrendong Hydro,NSW,130417.0,36227.0,Hydro,2017-2018,-32.6801776,149.1386215,True
12,AGL ENERGY LIMITED,Copeton Hydro,NSW,148524.0,41257.0,Hydro,2017-2018,-29.8466241,150.8866281,True
13,AGL ENERGY LIMITED,Dartmouth Hydro,VIC,201611.0,56003.0,Hydro,2017-2018,-36.5324694,147.4961766,True
14,AGL ENERGY LIMITED,Eildon Hydro,VIC,668859.0,185794.0,Hydro,2017-2018,-37.2345677,145.9089916,True
15,AGL ENERGY LIMITED,Glenbawn Hydro,NSW,70572.0,19603.0,Hydro,2017-2018,-32.1080329,150.985732,True
16,AGL ENERGY LIMITED,Glenorchy Landfill Generation,TAS,32986.0,9163.0,Landfill Gas,2017-2018,-42.833056,147.275833,True
21,AGL ENERGY LIMITED,Hobart Landfill Generation,TAS,22430.0,6231.0,Landfill Gas,2017-2018,-42.8826055,147.3257196,True
22,AGL ENERGY LIMITED,Hunter Valley Gas Turbines,NSW,3073.0,854.0,Gas,2017-2018,-32.1932173,151.700565,False
23,AGL ENERGY LIMITED,Kemps Creek Landfill Generation,NSW,47007.0,13058.0,Landfill Gas,2017-2018,-33.8805637,150.7927925,True
24,AGL ENERGY LIMITED,Kincumber Landfill Generation,NSW,7588.0,2108.0,Landfill Gas,2017-2018,-33.4689844,151.3898882,True
25,AGL ENERGY LIMITED,Liddell Power Station,NSW,30667257.0,8518683.0,Black Coal,2017-2018,-32.3715056,150.9773385,False
26,AGL ENERGY LIMITED,Loy Yang Power Station and Mine,VIC,61026883.0,16951912.0,Brown Coal,2017-2018,-38.2537069,146.5756631,False
27,AGL ENERGY LIMITED,Macarthur Wind Farm,VIC,3770990.0,1047497.0,Wind,2017-2018,-38.0490795,142.1915163,True
28,AGL ENERGY LIMITED,McKay Creek Hydro,VIC,357923.0,99423.0,Hydro,2017-2018,45.5250549,-123.0049896,True
29,AGL ENERGY LIMITED,Moranbah Power Station,QLD,197704.0,54918.0,Coal Seam Methane,2017-2018,-22.0060858,148.0398332,False
30,AGL ENERGY LIMITED,Nyngan Solar Plant,NSW,902651.0,250736.0,Solar,2017-2018,-31.5662057,147.0707349,True
31,AGL ENERGY LIMITED,Oaklands Hill Wind Farm,VIC,677832.0,188287.0,Wind,2017-2018,-37.683252,142.551115,True
32,AGL ENERGY LIMITED,Pindari Hydro,NSW,12970.0,3603.0,Hydro,2017-2018,-29.515155,151.288486,True
33,AGL ENERGY LIMITED,Rockingham Landfill Generation,WA,84406.0,23446.0,Landfill Gas,2017-2018,-32.2780969,115.7351399,True
34,AGL ENERGY LIMITED,Rubicon Hydro Scheme,VIC,150908.0,41919.0,Hydro,2017-2018,-37.3259849,145.8614196,True
35,AGL ENERGY LIMITED,Shoalhaven Landfill Generation,NSW,6308.0,1752.0,Landfill Gas,2017-2018,-35.0810677,150.4892292,True
37,AGL ENERGY LIMITED,Torrens Island Power Station,SA,10072272.0,2797853.0,Gas,2017-2018,-34.8065986,138.5231933,False
38,AGL ENERGY LIMITED,Wattle Point Wind Farm,SA,977706.0,271585.0,Wind,2017-2018,-35.1117422,137.7212617,True
39,AGL ENERGY LIMITED,Werribee Biogas Generator,VIC,231340.0,64261.0,Biogas,2017-2018,-37.8997995,144.6641401,True
42,AGL ENERGY LIMITED,Woy Woy Landfill Generation,NSW,27416.0,7616.0,Landfill Gas,2017-2018,-33.4887953,151.3259426,True
43,AGL ENERGY LIMITED,Yarrawonga Hydro,VIC,134344.0,37318.0,Hydro,2017-2018,-36.0260723,146.0003241,True
45,ALCOA AUSTRALIAN HOLDINGS PTY LTD,Alinta Pinjarra Generation Facility,WA,7760182.0,2155606.0,Gas,2017-2018,-32.6462926,115.9464342,False
47,APT PIPELINES LIMITED,Daandine Power Station,QLD,787397.0,218721.0,Coal Seam Methane,2017-2018,-27.0861935,150.9425679,False
48,APT PIPELINES LIMITED,Diamantina Power Station,QLD,5765248.0,1601458.0,Gas,2017-2018,-20.7830295,139.4829711,False
49,APT PIPELINES LIMITED,Emu Downs Solar Farm,WA,97410.0,27058.0,Solar,2017-2018,-30.48468,115.415795,True
50,APT PIPELINES LIMITED,Emu Downs Wind Farm,WA,864702.0,240195.0,Wind,2017-2018,-30.4756515,115.381241,True
52,ARROW ENERGY HOLDINGS PTY LTD,Braemar 2 Power Station,QLD,925917.0,257199.0,Coal Seam Methane,2017-2018,-27.1107842,150.9054673,False
54,ATCO AUSTRALIA PTY LTD,Karratha Power Station,WA,284128.0,78924.0,Gas,2017-2018,-20.7336955,116.8447057,False
59,AXIA ENERGY AUSTRALIA PTY LTD,Smithfield Power Partnership,NSW,259179.0,71994.0,Gas,2017-2018,-33.8535722,150.9406861,False
61,BALD HILLS WF HOLDINGS PTY LTD,Bald Hills Wind Farm Pty Ltd,VIC,1306751.0,362986.0,Wind,2017-2018,-38.7478299,145.9494813,True
63,BEIJING JINGNENG CLEAN ENERGY (AUSTRALIA) HOLDING PTY LTD,New Gullen Range Wind Farm Pty Ltd,NSW,1825008.0,506947.0,Wind,2017-2018,-33.863638,151.2049168,True
65,BHP BILLITON IRON ORE PTY. LTD.,Yarnima Power Station,WA,2613641.0,726011.0,Gas,2017-2018,-23.3435575,119.7109647,False
67,BLUEWATERS POWER 1 PTY LTD,Bluewaters Power 1,WA,5796946.0,1610263.0,Black Coal,2017-2018,-33.3297691,116.2265472,False
69,BLUEWATERS POWER 2 PTY LTD,Bluewaters Power 2,WA,6232601.0,1731278.0,Black Coal,2017-2018,-33.3297691,116.2265472,False
71,BPIH PTY LIMITED,Enwave Central Park Pty Ltd,NSW,7740.0,2150.0,Gas,2017-2018,-34.55479589999999,150.7918204,False
72,BPIH PTY LIMITED,Enwave Mascot Pty Ltd,NSW,104473.0,29020.0,Gas,2017-2018,-31.2532183,146.921099,False
74,C S ENERGY LIMITED,Callide B Power Station,QLD,19818112.0,5505031.0,Black Coal,2017-2018,-24.2927187,150.4933758,False
75,C S ENERGY LIMITED,Callide C Power Station,QLD,21023694.0,5839915.0,Black Coal,2017-2018,-24.2927187,150.4933758,False
76,C S ENERGY LIMITED,Kogan Creek Power Station,QLD,18916535.0,5254593.0,Black Coal,2017-2018,-26.9146137,150.746994,False
77,C S ENERGY LIMITED,Wivenhoe Power Station,QLD,129318.0,35922.0,Hydro,2017-2018,-27.3724152,152.6320267,True
81,CAPE BYRON MANAGEMENT PTY LTD,Broadwater Power Plant,NSW,846961.0,235267.0,Bagasse,2017-2018,-29.0145838,153.4300366,True
82,CAPE BYRON MANAGEMENT PTY LTD,Condong Power Plant,NSW,774424.0,215118.0,Bagasse,2017-2018,-28.3117883,153.4363815,True
86,CECEP WIND POWER AUSTRALIA HOLDING PTY LTD,White Rock Wind Farm Pty Ltd,NSW,1245731.0,346036.0,Wind,2017-2018,-29.7624218,151.5447433,True
88,CLARKE ENERGY (AUSTRALIA) PTY LTD,Daandine Power Station,QLD,787397.0,218721.0,Coal Seam Methane,2017-2018,-27.0861935,150.9425679,False
90,CONTRACT POWER AUSTRALIA PTY LTD,Cue Town Powerstation,WA,10727.0,2980.0,Diesel,2017-2018,-27.4245191,117.8969772,False
91,CONTRACT POWER AUSTRALIA PTY LTD,Meekatharra Town Powerstation,WA,24219.0,6728.0,Diesel,2017-2018,-26.5956611,118.4935984,False
92,CONTRACT POWER AUSTRALIA PTY LTD,Mt Magnet Town Powerstation,WA,13739.0,3816.0,Gas,2017-2018,-28.0652329,117.8487476,False
93,CONTRACT POWER AUSTRALIA PTY LTD,Norseman Gold Power Station,WA,15562.0,4323.0,Diesel,2017-2018,-32.1977913,121.7788563,False
94,CONTRACT POWER AUSTRALIA PTY LTD,Sandstone Town Powerstation,WA,2462.0,684.0,Diesel,2017-2018,-28.6401506,119.0459927,False
95,CONTRACT POWER AUSTRALIA PTY LTD,Wiluna Town Powerstation,WA,8725.0,2424.0,Diesel,2017-2018,-26.5943011,120.227356,False
96,CONTRACT POWER AUSTRALIA PTY LTD,Yalgoo Town Powerstation,WA,3676.0,1021.0,Diesel,2017-2018,-28.3508702,116.7658255,False
98,CULLERIN RANGE WIND FARM PTY LTD,Cullerin Range Wind Farm,NSW,405688.0,112691.0,Wind,2017-2018,-34.8180225,149.399069,True
100,CWF HOLDINGS PTY LTD,Collgar Wind Farm,WA,2575799.0,715500.0,Wind,2017-2018,-31.9509006,115.8496117,True
102,CWP RENEWABLES PTY LTD,Boco Rock Wind Farm Pty Ltd,NSW,1339270.0,372019.0,Wind,2017-2018,-36.5769554,149.125867,True
104,DIF INFRA 4 HOLDINGS AUSTRALIA PTY LTD,Royalla Solar Farm ,ACT,141150.0,39208.0,Solar,2017-2018,-35.4897929,149.1430018,True
106,EDL (OCI) PTY LIMITED,Glennies Creek WCMG Power Station,NSW,278299.0,77305.0,Waste Coal Mine Gas,2017-2018,-32.4612156,151.1069328,False
107,EDL (OCI) PTY LIMITED,Oaky Creek II WCMG Power Station,QLD,378474.0,105132.0,Waste Coal Mine Gas,2017-2018,-28.1913043,152.9375365,False
108,EDL (OCI) PTY LIMITED,Oaky Creek WCMG Power Station,QLD,481208.0,133669.0,Waste Coal Mine Gas,2017-2018,-28.1913043,152.9375365,False
110,EDL (TT) PTY LIMITED,Tahmoor WCMG Power Station,NSW,118651.0,32959.0,Waste Coal Mine Gas,2017-2018,-34.2246566,150.5929466,False
112,EDL CSM (NSW) PTY LTD,Appin CSM Power Station,NSW,358092.0,99470.0,Waste Coal Mine Gas,2017-2018,-34.200914,150.7874904,False
113,EDL CSM (NSW) PTY LTD,Tower CSM Power Station,NSW,675750.0,187708.0,Waste Coal Mine Gas,2017-2018,-31.2532183,146.921099,False
115,EDL CSM (QLD) PTY LTD,German Creek CMM Power Station,QLD,1091491.0,303192.0,Waste Coal Mine Gas,2017-2018,-25.47614107456473,152.8968730508393,False
117,EDL LFG (ACT) PTY LTD,Mugga Lane LFG Power Station,ACT,114143.0,31706.0,Landfill Gas,2017-2018,-35.3739879,149.1324352,True
118,EDL LFG (ACT) PTY LTD,West Belconnen LFG Power Station,ACT,7519.0,2089.0,Landfill Gas,2017-2018,-35.2376521,149.0673217,True
120,EDL LFG (NSW) PTY LTD,Belrose LFG Power Station,NSW,8209.0,2280.0,Landfill Gas,2017-2018,-33.72828990000001,151.2179132,True
121,EDL LFG (NSW) PTY LTD,Eastern Creek LFG Power Station,NSW,32006.0,8891.0,Landfill Gas,2017-2018,-33.8102184,150.85064,True
122,EDL LFG (NSW) PTY LTD,Grange Avenue LFG Power Station,NSW,19676.0,5466.0,Landfill Gas,2017-2018,-33.701442,150.8513512,True
123,EDL LFG (NSW) PTY LTD,Jack's Gully LFG Power Station,NSW,46214.0,12837.0,Landfill Gas,2017-2018,-31.2532183,146.921099,True
124,EDL LFG (NSW) PTY LTD,Lucas Heights 1 LFG Power Station,NSW,50303.0,13973.0,Landfill Gas,2017-2018,-34.0506403,150.9872444,True
125,EDL LFG (NSW) PTY LTD,Lucas Heights 2 LFG Power Station,NSW,363867.0,101074.0,Landfill Gas,2017-2018,-34.0506403,150.9872444,True
127,EDL LFG (QLD) PTY LTD,Browns Plains LFG Power Station,QLD,49434.0,13732.0,Landfill Gas,2017-2018,-27.6624358,153.0527734,True
128,EDL LFG (QLD) PTY LTD,Roghan Road LFG Power Station,QLD,3462.0,962.0,Landfill Gas,2017-2018,-27.3408691,153.0398998,True
130,EDL LFG (SA) PTY LTD,Wingfield 1 LFG Power Station,SA,56828.0,15786.0,Landfill Gas,2017-2018,-34.8413535,138.54613,True
131,EDL LFG (SA) PTY LTD,Wingfield 2 LFG Power Station,SA,53366.0,14824.0,Landfill Gas,2017-2018,-34.8413535,138.54613,True
133,EDL LFG (VIC) PTY LTD,Berwick LFG Power Station,VIC,43366.0,12046.0,Landfill Gas,2017-2018,-38.0309443,145.3437469,True
134,EDL LFG (VIC) PTY LTD,Broadmeadows LFG Power Station,VIC,47876.0,13299.0,Landfill Gas,2017-2018,-37.6858788,144.9246674,True
135,EDL LFG (VIC) PTY LTD,Brooklyn LFG Power Station,VIC,40378.0,11216.0,Landfill Gas,2017-2018,-37.8173492,144.8465361,True
136,EDL LFG (VIC) PTY LTD,Clayton LFG Power Station,VIC,303134.0,84204.0,Landfill Gas,2017-2018,-37.9145479,145.127492,True
138,EDL LFG (VIC) PTY LTD,Springvale LFG Power Station,VIC,43619.0,12116.0,Landfill Gas,2017-2018,-37.9487211,145.1529433,True
140,EDL NGD (NT) PTY LTD,McArthur River Power Station,NT,1007350.0,279819.0,Gas,2017-2018,-16.11427123151219,136.3288903783971,False
141,EDL NGD (NT) PTY LTD,Pine Creek A Power Station,NT,594389.0,165108.0,Gas,2017-2018,-13.8226918,131.8344229,False
143,EDL NGD (WA) PTY LTD ,Broome LNG Power Station,WA,500240.0,138956.0,Gas,2017-2018,-17.96182,122.236998,False
144,EDL NGD (WA) PTY LTD ,Derby LNG Power Station,WA,121420.0,33728.0,Gas,2017-2018,-17.309288,123.6401839,False
145,EDL NGD (WA) PTY LTD ,Fitzroy Crossing LNG Power Station,WA,53373.0,14826.0,Gas,2017-2018,-18.19797,125.5670892,False
146,EDL NGD (WA) PTY LTD ,Halls Creek LNG Power Station,WA,41293.0,11470.0,Gas,2017-2018,-18.2229842,127.6701399,False
147,EDL NGD (WA) PTY LTD ,Looma NGD Power Station,WA,9142.0,2539.0,Diesel,2017-2018,-18.0398016,124.1493803,False
149,EDL PROJECTS (AUSTRALIA) PTY LTD,Grosvenor 1 WCMG Power Station,QLD,572111.0,158920.0,Waste Coal Mine Gas,2017-2018,-25.4280672,151.1771816,False
150,EDL PROJECTS (AUSTRALIA) PTY LTD,Grosvenor 2 WCMG Power Station,QLD,316384.0,87884.0,Waste Coal Mine Gas,2017-2018,-25.4280672,151.1771816,False
151,EDL PROJECTS (AUSTRALIA) PTY LTD,Moranbah North CMM Power Station,QLD,1828241.0,507845.0,Waste Coal Mine Gas,2017-2018,-21.8853292,147.9657585,False
153,ELECTRICITY GENERATION AND RETAIL CORPORATION,Albany Wind Farm,WA,333656.0,92682.0,Wind,2017-2018,-35.0658656,117.7996621,True
154,ELECTRICITY GENERATION AND RETAIL CORPORATION,Bremer Bay Wind Diesel Power Station,WA,5968.0,1658.0,Wind,2017-2018,-34.3979041,119.3763011,True
155,ELECTRICITY GENERATION AND RETAIL CORPORATION,Cockburn Power Station,WA,424926.0,118035.0,Gas,2017-2018,-32.2003779,115.7740725,False
156,ELECTRICITY GENERATION AND RETAIL CORPORATION,Collie Power Station ,WA,7314999.0,2031944.0,Black Coal,2017-2018,-33.341644,116.2622398,False
157,ELECTRICITY GENERATION AND RETAIL CORPORATION,Coral Bay Wind Diesel Power Station,WA,12752.0,3542.0,Wind,2017-2018,-23.1422976,113.7723112,True
158,ELECTRICITY GENERATION AND RETAIL CORPORATION,Denham Wind Farm,WA,4907.0,1363.0,Wind,2017-2018,-25.9299413,113.538149,True
159,ELECTRICITY GENERATION AND RETAIL CORPORATION,Esperance Wind Farm,WA,56803.0,15779.0,Wind,2017-2018,-33.8613953,121.8912724,True
160,ELECTRICITY GENERATION AND RETAIL CORPORATION,Greenough River Solar Farm,WA,78534.0,21815.0,Solar,2017-2018,-28.9038103,115.1115641,True
161,ELECTRICITY GENERATION AND RETAIL CORPORATION,Hopetoun Wind Diesel Power Station,WA,16787.0,4663.0,Wind,2017-2018,-33.936999,120.1270136,True
162,ELECTRICITY GENERATION AND RETAIL CORPORATION,Kalbarri Wind Farm,WA,11370.0,3158.0,Wind,2017-2018,-27.7115397,114.1713913,True
163,ELECTRICITY GENERATION AND RETAIL CORPORATION,Kalgoorlie Gas Turbine Station,WA,5081.0,1411.0,Gas,2017-2018,-30.749,121.466,False
164,ELECTRICITY GENERATION AND RETAIL CORPORATION,Kwinana Power Station,WA,2819814.0,783282.0,Gas,2017-2018,-32.2004954,115.774588,False
165,ELECTRICITY GENERATION AND RETAIL CORPORATION,Muja Power Station,WA,15838621.0,4399617.0,Black Coal,2017-2018,-33.446204,116.3065633,False
166,ELECTRICITY GENERATION AND RETAIL CORPORATION,Mungarra Gas Turbine Station,WA,69421.0,19284.0,Gas,2017-2018,-28.887904,115.118193,False
167,ELECTRICITY GENERATION AND RETAIL CORPORATION,Pinjar Gas Turbine Station,WA,2052787.0,570219.0,Gas,2017-2018,-31.62058739999999,115.8208094,False
169,ELECTRICITY NETWORKS CORPORATION,Ravensthorpe Power Station,WA,772.0,214.0,Diesel,2017-2018,-33.578677,120.0456159,False
171,ENERGY GENERATION PTY LTD,Ardyaloon Facility,WA,7064.0,1962.0,Diesel,2017-2018,-16.4469782,123.0597129,False
172,ENERGY GENERATION PTY LTD,Beagle Bay Facility,WA,6306.0,1752.0,Diesel,2017-2018,-16.9830116,122.6651831,False
173,ENERGY GENERATION PTY LTD,Bidyadanga Facility,WA,10355.0,2876.0,Diesel,2017-2018,-18.6844063,121.7777973,False
174,ENERGY GENERATION PTY LTD,Coober Pedy Facility,SA,63093.0,17526.0,Wind,2017-2018,-29.013516,134.7544219,True
175,ENERGY GENERATION PTY LTD,Djarindjin Facility,WA,6923.0,1923.0,Diesel,2017-2018,-16.514329,122.895699,False
176,ENERGY GENERATION PTY LTD,Gascoyne Facility,WA,2648.0,736.0,Diesel,2017-2018,-24.5453479,115.2837585,False
177,ENERGY GENERATION PTY LTD,Laverton Facility,WA,14868.0,4130.0,Diesel,2017-2018,-28.6259124,122.4014814,False
178,ENERGY GENERATION PTY LTD,Leonora Facility,WA,29622.0,8228.0,Gas,2017-2018,-28.8849715,121.3309059,False
179,ENERGY GENERATION PTY LTD,Menzies Facility,WA,2392.0,664.0,Diesel,2017-2018,-29.6935575,121.0288851,False
180,ENERGY GENERATION PTY LTD,Warmun Facility,WA,9546.0,2652.0,Diesel,2017-2018,-17.029704,128.2108177,False
182,ENERGY QUEENSLAND LIMITED,Barcaldine Power Station Facility,QLD,3041.0,845.0,Gas,2017-2018,-23.5523795,145.3140957,False
183,ENERGY QUEENSLAND LIMITED,Energy Impact - Bromelton Peak Generation Plant - Facility,QLD,3134.0,871.0,Diesel,2017-2018,-27.981644,152.9673844,False
184,ENERGY QUEENSLAND LIMITED,Energy Impact - Generation - Facility,QLD,1964.0,546.0,Diesel,2017-2018,-22.575197,144.0847926,False
186,ENERGYAUSTRALIA HOLDINGS LIMITED,Hallett Power Station,SA,71364.0,19823.0,Gas,2017-2018,-33.3522796,138.7536186,False
187,ENERGYAUSTRALIA HOLDINGS LIMITED,Jeeralang Power Station,VIC,440834.0,122454.0,Gas,2017-2018,-38.2750317,146.4254869,False
188,ENERGYAUSTRALIA HOLDINGS LIMITED,Mt Piper Power Station,NSW,28311455.0,7864293.0,Black Coal,2017-2018,-33.358008,150.0320006,False
189,ENERGYAUSTRALIA HOLDINGS LIMITED,Newport Power Station,VIC,3666804.0,1018557.0,Gas,2017-2018,-37.8411815,144.8944409,False
190,ENERGYAUSTRALIA HOLDINGS LIMITED,Tallawarra Power Station,NSW,5286970.0,1468603.0,Gas,2017-2018,-34.5224899,150.8082317,False
191,ENERGYAUSTRALIA HOLDINGS LIMITED,Waterloo Wind Farm,SA,329504.0,91529.0,Wind,2017-2018,-34.00106030000001,138.9110041,True
192,ENERGYAUSTRALIA HOLDINGS LIMITED,Yallourn Power Station,VIC,36860112.0,10238920.0,Brown Coal,2017-2018,-38.1814386,146.3479385,False
194,ERM POWER LIMITED,Newgen Neerabup Power Station,WA,916383.0,254551.0,Gas,2017-2018,-31.6711775,115.801039,False
195,ERM POWER LIMITED,Oakey Power Station,QLD,268495.0,74582.0,Gas,2017-2018,-27.4182658,151.6810198,False
197,ESPERANCE POWER STATION PTY LTD,Esperance Power Station,WA,249660.0,69350.0,Gas,2017-2018,-33.8613953,121.8912724,False
199,ESSENTIAL ENERGY,Essential Energy Generation Facility - Broken Hill Gas Turbine,NSW,378.0,105.0,Diesel,2017-2018,-31.9595859,141.4608138,False
201,FENGATE EXMOUTH ENERGY SPV PTY LTD,Exmouth Power Station Pty Ltd,WA,90569.0,25158.0,Gas,2017-2018,-21.9323088,114.1278654,False
203,FORTESCUE METALS GROUP LTD,Solomon Power Station,WA,666413.0,185115.0,Gas,2017-2018,-27.6728168,121.6283098,False
207,GOLDFIELDS POWER PTY LTD,Parkeston Power Station,WA,595231.0,165342.0,Gas,2017-2018,-30.7269451,121.4974951,False
209,HYDRO POWER PTY LIMITED,Wyangala A,NSW,217905.0,60529.0,Hydro,2017-2018,-33.9626487,148.9542551,True
210,HYDRO POWER PTY LIMITED,Wyangala B,NSW,10894.0,3026.0,Hydro,2017-2018,-33.9626487,148.9542551,True
212,HYDRO-ELECTRIC CORPORATION,Bastyan Hydro Power Station,TAS,1293382.0,359273.0,Hydro,2017-2018,-41.7360047,145.5318835,True
213,HYDRO-ELECTRIC CORPORATION,Butlers Gorge Hydro Power Station,TAS,289013.0,80281.0,Hydro,2017-2018,-42.28059469999999,146.3151456,True
214,HYDRO-ELECTRIC CORPORATION,Catagunya Hydro Power Station,TAS,834113.0,231698.0,Hydro,2017-2018,-42.4376122,146.5621389,True
215,HYDRO-ELECTRIC CORPORATION,Cethana Hydro Power Station,TAS,1535178.0,426438.0,Hydro,2017-2018,-41.4767384,146.1328194,True
217,HYDRO-ELECTRIC CORPORATION,Devils Gate Hydro Power Station,TAS,1069871.0,297186.0,Hydro,2017-2018,-41.3500366,146.2647857,True
219,HYDRO-ELECTRIC CORPORATION,Flinders Island Power Station,TAS,17127.0,4758.0,Wind,2017-2018,-40.1163649,148.0288719,True
221,HYDRO-ELECTRIC CORPORATION,John Butters Hydro Power Station,TAS,2057927.0,571646.0,Hydro,2017-2018,-42.1548711,145.5345778,True
222,HYDRO-ELECTRIC CORPORATION,King Island Power Station,TAS,47627.0,13230.0,Wind,2017-2018,-39.87534770000001,143.9370758,True
223,HYDRO-ELECTRIC CORPORATION,Lake Echo Hydro Power Station,TAS,213343.0,59262.0,Hydro,2017-2018,-42.1581419,146.6456158,True
224,HYDRO-ELECTRIC CORPORATION,Lake Margaret Lower Hydro Power station,TAS,55960.0,15544.0,Hydro,2017-2018,-42.0039252,145.5442864,True
225,HYDRO-ELECTRIC CORPORATION,Lake Margaret Upper Hydro Power Station,TAS,163390.0,45386.0,Hydro,2017-2018,-42.0039252,145.5442864,True
226,HYDRO-ELECTRIC CORPORATION,Lemonthyme Hydro Power Station,TAS,1078743.0,299651.0,Hydro,2017-2018,-41.5746481,146.1643107,True
227,HYDRO-ELECTRIC CORPORATION,Liapootah Hydro Power Station,TAS,1497527.0,415980.0,Hydro,2017-2018,-42.3182578,146.4726908,True
229,HYDRO-ELECTRIC CORPORATION,Meadowbank Hydro Power Station,TAS,652866.0,181352.0,Hydro,2017-2018,-42.6362629,146.8488872,True
230,HYDRO-ELECTRIC CORPORATION,Paloona Hydro Power Station,TAS,489220.0,135894.0,Hydro,2017-2018,-41.2581401,146.2699943,True
231,HYDRO-ELECTRIC CORPORATION,Parangana Hydro Power Station,TAS,11006.0,3057.0,Hydro,2017-2018,-42.0409059,146.8087322,True
232,HYDRO-ELECTRIC CORPORATION,Poatina Hydro Power Station,TAS,4371071.0,1214186.0,Hydro,2017-2018,-41.7958243,146.9610493,True
235,HYDRO-ELECTRIC CORPORATION,Rowallan Hydro Power Station,TAS,141533.0,39315.0,Hydro,2017-2018,-41.7294863,146.2175479,True
237,HYDRO-ELECTRIC CORPORATION,Tarraleah Hydro Power Station,TAS,2084470.0,579019.0,Hydro,2017-2018,-42.301225,146.4503471,True
238,HYDRO-ELECTRIC CORPORATION,Tods Corner Hydro Power Station,TAS,6348.0,1763.0,Hydro,2017-2018,-41.9695227,146.796318,True
239,HYDRO-ELECTRIC CORPORATION,Trevallyn Hydro Power Station,TAS,1272208.0,353391.0,Hydro,2017-2018,-41.43540950000001,147.1197143,True
241,HYDRO-ELECTRIC CORPORATION,Tungatinah Hydro Power Station,TAS,1954117.0,542810.0,Hydro,2017-2018,-42.2967833,146.4566074,True
242,HYDRO-ELECTRIC CORPORATION,Wayatinah Hydro Power Station,TAS,1211194.0,336443.0,Hydro,2017-2018,-42.3886455,146.4997426,True
243,HYDRO-ELECTRIC CORPORATION,Wilmot Hydro Power Station,TAS,430135.0,119482.0,Hydro,2017-2018,-42.0409059,146.8087322,True
245,INFIGEN ENERGY LIMITED,Alinta Wind Farm,WA,1164238.0,323399.0,Wind,2017-2018,-28.9024923,114.8927165,True
246,INFIGEN ENERGY LIMITED,Capital East Solar Farm,NSW,618.0,172.0,Solar,2017-2018,-31.2532183,146.921099,True
247,INFIGEN ENERGY LIMITED,Capital Wind Farm,NSW,1382798.0,384111.0,Wind,2017-2018,-35.1661165,149.518277,True
249,INFIGEN ENERGY LIMITED,Woodlawn Wind Farm,NSW,566343.0,157318.0,Wind,2017-2018,-35.0954285,149.5789486,True
251,IPM (KWINANA) PTY LTD,Kwinana Cogeneration Plant,WA,3093310.0,859253.0,Gas,2017-2018,-31.9505048,115.8604867,False
253,KIAMCO FORESIGHT HANWHA BARCALDINE 1 PTY LTD,Barcaldine Remote Community Solar Farm Pty Ltd,QLD,200513.0,55698.0,Solar,2017-2018,-23.5559218,145.2882741,True
257,LANDFILL GAS & POWER PTY LTD,Kalamunda Power Station,WA,18.0,5.0,Diesel,2017-2018,-31.9733275,116.0604722,False
258,LANDFILL GAS & POWER PTY LTD,Red Hill LFG Power Station,WA,103309.0,28697.0,Landfill Gas,2017-2018,-31.8548072,116.0538776,True
259,LANDFILL GAS & POWER PTY LTD,Tamala Park LFG Power Station,WA,152401.0,42334.0,Landfill Gas,2017-2018,-31.704321,115.7349162,True
261,LMS ENERGY PTY LTD,Albury Renewable Energy Facility,NSW,26980.0,7494.0,Landfill Gas,2017-2018,-36.0751193,146.9094852,True
262,LMS ENERGY PTY LTD,Atlas Renewable Energy Facility,WA,7681.0,2134.0,Landfill Gas,2017-2018,-27.6728168,121.6283098,True
263,LMS ENERGY PTY LTD,Awaba Renewable Energy Facility,NSW,29701.0,8250.0,Landfill Gas,2017-2018,-33.0086146,151.5475816,True
264,LMS ENERGY PTY LTD,Ballarat Renewable Energy Facility,VIC,24853.0,6904.0,Landfill Gas,2017-2018,-37.5621587,143.8502556,True
265,LMS ENERGY PTY LTD,Bendigo Renewable Energy Facility,VIC,15077.0,4188.0,Landfill Gas,2017-2018,-36.75961960000001,144.2785764,True
266,LMS ENERGY PTY LTD,Birkdale Renewable Energy Facility,QLD,21309.0,5919.0,Landfill Gas,2017-2018,-27.4935931,153.2137869,True
267,LMS ENERGY PTY LTD,Darwin Renewable Energy Facility,NT,30987.0,8608.0,Landfill Gas,2017-2018,-12.4637333,130.8444446,True
268,LMS ENERGY PTY LTD,Eastern Creek 2 Renewable Energy Facility,NSW,205511.0,57086.0,Landfill Gas,2017-2018,-33.8102184,150.85064,True
269,LMS ENERGY PTY LTD,Hampton Park Renewable Energy Facility,VIC,228276.0,63410.0,Landfill Gas,2017-2018,-38.032286,145.2678469,True
270,LMS ENERGY PTY LTD,Ipswich Renewable Energy Facility,QLD,19095.0,5304.0,Landfill Gas,2017-2018,-27.614614,152.7608421,True
271,LMS ENERGY PTY LTD,Mornington Peninsula Renewable Energy Facility,VIC,22415.0,6226.0,Landfill Gas,2017-2018,-38.2854053,145.093449,True
272,LMS ENERGY PTY LTD,NAWMA Renewable Energy Facility,SA,20784.0,5773.0,Landfill Gas,2017-2018,-34.7383029,138.6355222,True
273,LMS ENERGY PTY LTD,NAWMA Solar Facility,SA,4246.0,1179.0,Solar,2017-2018,-34.7383029,138.6355222,True
274,LMS ENERGY PTY LTD,Newcastle Renewable Energy Facility,NSW,67569.0,18769.0,Landfill Gas,2017-2018,-32.9282712,151.7816802,True
276,LMS ENERGY PTY LTD,Rochedale Renewable Energy Facility,QLD,135177.0,37549.0,Landfill Gas,2017-2018,-27.56924,153.1164813,True
277,LMS ENERGY PTY LTD,Shepparton Renewable Energy Facility,VIC,18905.0,5251.0,Landfill Gas,2017-2018,-36.3821418,145.4072272,True
278,LMS ENERGY PTY LTD,South Cardup Renewable Energy Facility,WA,105824.0,29396.0,Landfill Gas,2017-2018,-32.2577875,115.9963935,True
279,LMS ENERGY PTY LTD,Stapylton Renewable Energy Facility,QLD,72885.0,20246.0,Landfill Gas,2017-2018,-27.7295742,153.2388459,True
280,LMS ENERGY PTY LTD,Swanbank Renewable Energy Facility,QLD,45928.0,12758.0,Landfill Gas,2017-2018,-27.6397754,152.8240562,True
281,LMS ENERGY PTY LTD,Wollert Renewable Energy Facility,VIC,211908.0,58863.0,Landfill Gas,2017-2018,-37.6085118,145.0313459,True
283,LMS ENERGY PTY LTD,Wyong Renewable Energy Facility,NSW,68035.0,18899.0,Landfill Gas,2017-2018,-33.2843475,151.4249427,True
285,MERIDIAN ENERGY AUSTRALIA PTY LTD,Burrinjuck Hydro,NSW,215404.0,59834.0,Hydro,2017-2018,-34.9815388,148.617713,True
286,MERIDIAN ENERGY AUSTRALIA PTY LTD,Hume Hydro ,NSW,732139.0,203372.0,Hydro,2017-2018,-31.2532183,146.921099,True
287,MERIDIAN ENERGY AUSTRALIA PTY LTD,Keepit Hydro,NSW,41182.0,11439.0,Hydro,2017-2018,-30.8941167,150.5036412,True
288,MERIDIAN ENERGY AUSTRALIA PTY LTD,Mt Mercer Wind farm Pty Ltd,VIC,1353143.0,375873.0,Wind,2017-2018,-37.8318698,143.8884633,True
289,MERIDIAN ENERGY AUSTRALIA PTY LTD,Mt Millar Wind Farm Pty Ltd,SA,695306.0,193141.0,Wind,2017-2018,-33.6255531,136.7039082,True
291,MOMENTUM ENERGY PTY LIMITED,Alfred Hospital Cogeneration Plant,VIC,67158.0,18655.0,Gas,2017-2018,-37.846154,144.9827473,False
292,MOMENTUM ENERGY PTY LIMITED,Dandenong Hospital Cogeneration Plant,VIC,60904.0,16918.0,Gas,2017-2018,-37.976484,145.2192169,False
293,MOMENTUM ENERGY PTY LIMITED,Geelong Hospital Cogeneration Plant,VIC,66473.0,18465.0,Gas,2017-2018,-38.1521039,144.3654034,False
294,MOMENTUM ENERGY PTY LIMITED,Royal Melbourne Hospital Cogeneration Plant,VIC,142274.0,39521.0,Gas,2017-2018,-37.7986657,144.955973,False
297,MORTONS LANE WIND FARM (HOLDING) PTY LTD,Mortons Lane Windfarm Pty Ltd,VIC,232407.0,64558.0,Wind,2017-2018,-37.83531900000001,142.4662279,True
299,MUMBIDA WIND FARM NO 1 HOLDINGS PTY LTD,Mumbida Wind Farm Pty Ltd,WA,683865.0,189963.0,Wind,2017-2018,-29.0110631,114.9684225,True
301,NEOEN AUSTRALIA PTY LTD,DEGRUSSA SOLAR PROJECT PTY LTD,WA,71487.0,19858.0,Solar,2017-2018,-25.5399495,119.3229267,True
302,NEOEN AUSTRALIA PTY LTD,DUBBO SOLAR HUB PTY LTD,NSW,17821.0,4950.0,Solar,2017-2018,-32.2443908,148.614418,True
303,NEOEN AUSTRALIA PTY LTD,GRIFFITH SOLAR FARM PTY LTD,NSW,59368.0,16491.0,Solar,2017-2018,-34.3174144,146.1207389,True
304,NEOEN AUSTRALIA PTY LTD,HORNSDALE POWER RESERVE PTY LTD,SA,79298.0,22027.0,Battery,2017-2018,-33.085897,138.5183516,False
308,NEOEN AUSTRALIA PTY LTD,PARKES SOLAR FARM PTY LTD,NSW,109528.0,30424.0,Solar,2017-2018,-33.11293089999999,148.0763972,True
310,NEWGEN KWINANA HOLDINGS PTY LTD,Kwinana Gas Fired Power Station,WA,7466829.0,2074119.0,Gas,2017-2018,-32.2320792,115.7787256,False
312,NRG VICTORIA 1 PTY LTD,Gladstone Power Station,QLD,32309449.0,8974847.0,Black Coal,2017-2018,-23.8487488,151.2183353,False
314,ONSLOW ELECTRIC POWER PTY LTD,Onslow Power Station,WA,52031.0,14453.0,Gas,2017-2018,-27.6728168,121.6283098,False
316,ORIGIN ENERGY LIMITED,Australand,NSW,2132.0,592.0,Gas,2017-2018,-31.2532183,146.921099,False
317,ORIGIN ENERGY LIMITED,Ballarat Solar Park,VIC,1446.0,402.0,Solar,2017-2018,-37.5621587,143.8502556,True
318,ORIGIN ENERGY LIMITED,Bendigo Solar Park,VIC,1727.0,480.0,Solar,2017-2018,-36.75961960000001,144.2785764,True
319,ORIGIN ENERGY LIMITED,Blackmores,NSW,5027.0,1396.0,Gas,2017-2018,-31.2532183,146.921099,False
320,ORIGIN ENERGY LIMITED,Bond,NSW,3465.0,963.0,Gas,2017-2018,-31.2532183,146.921099,False
321,ORIGIN ENERGY LIMITED,Chifley Square,NSW,3808.0,1058.0,Gas,2017-2018,-33.8659402,151.2110977,False
322,ORIGIN ENERGY LIMITED,Dandenong,VIC,851.0,236.0,Gas,2017-2018,-37.9847811,145.2139907,False
323,ORIGIN ENERGY LIMITED,Darling Downs Power Station,QLD,8083131.0,2245314.0,Gas,2017-2018,-27.1164455,150.8954925,False
325,ORIGIN ENERGY LIMITED,Eraring Power Station,NSW,61870118.0,17186144.0,Black Coal,2017-2018,-33.0619324,151.5197469,False
326,ORIGIN ENERGY LIMITED,Exhibition Street,VIC,8693.0,2415.0,Gas,2017-2018,-37.8116895,144.9704421,False
327,ORIGIN ENERGY LIMITED,Kent Street,NSW,13175.0,3660.0,Gas,2017-2018,-33.8666677,151.2043583,False
329,ORIGIN ENERGY LIMITED,Ladbroke Grove Power Station,SA,659904.0,183307.0,Gas,2017-2018,-37.4567985,140.7829834,False
330,ORIGIN ENERGY LIMITED,Mirvac,NSW,17254.0,4793.0,Gas,2017-2018,-31.2532183,146.921099,False
331,ORIGIN ENERGY LIMITED,Mortlake Power Station,VIC,4603899.0,1278861.0,Gas,2017-2018,-38.063061,142.6679099,False
332,ORIGIN ENERGY LIMITED,Mount,NSW,7304.0,2029.0,Gas,2017-2018,-31.2532183,146.921099,False
333,ORIGIN ENERGY LIMITED,Mt Stuart Power Station,QLD,35050.0,9736.0,Kerosene,2017-2018,-19.3379375,146.8513486,False
334,ORIGIN ENERGY LIMITED,Quarantine Power Station,SA,686982.0,190828.0,Gas,2017-2018,-34.7801742,138.5221099,False
335,ORIGIN ENERGY LIMITED,Roma Power Station,QLD,113872.0,31631.0,Gas,2017-2018,-26.5710799,148.7856852,False
336,ORIGIN ENERGY LIMITED,Shoalhaven Scheme,NSW,357536.0,99316.0,Hydro,2017-2018,-35.0810677,150.4892292,True
337,ORIGIN ENERGY LIMITED,Stockland Headquarters,NSW,5280.0,1467.0,Gas,2017-2018,-31.2532183,146.921099,False
338,ORIGIN ENERGY LIMITED,University of NSW,NSW,8434.0,2343.0,Gas,2017-2018,-33.917347,151.2312675,False
339,ORIGIN ENERGY LIMITED,Uranquinty Power Station,NSW,2002061.0,556128.0,Gas,2017-2018,-35.1793949,147.2149902,False
341,OZGEN HOLDINGS AUSTRALIA PTY LTD,Callide C Power Station (facility),QLD,21023694.0,5839915.0,Black Coal,2017-2018,-24.2927187,150.4933758,False
342,OZGEN HOLDINGS AUSTRALIA PTY LTD,Millmerran Power Station (facility),QLD,25420974.0,7061382.0,Black Coal,2017-2018,-27.9619619,151.2790597,False
344,PALISADE WATERLOO HOLDINGS PTY LTD,Waterloo Wind Farm,SA,1103275.0,306465.0,Wind,2017-2018,-34.00106030000001,138.9110041,True
346,PELICAN POINT POWER LIMITED,Pelican Point Power Station,SA,9836716.0,2732421.0,Gas,2017-2018,-34.7647018,138.5051574,False
348,PERTH ENERGY PTY LTD,Kwinana Swift Power Station,WA,469390.0,130386.0,Gas,2017-2018,-32.2320792,115.7787256,False
350,PILBARA IRON PTY LTD,Cape Lambert Power Station,WA,561172.0,155881.0,Gas,2017-2018,-20.5833333,117.1666667,False
351,PILBARA IRON PTY LTD,Paraburdoo Power Station,WA,1889622.0,524895.0,Gas,2017-2018,-23.2007259,117.6714611,False
352,PILBARA IRON PTY LTD,West Angelas Power Station,WA,1645593.0,457109.0,Gas,2017-2018,-23.1777653,118.7617779,False
353,PILBARA IRON PTY LTD,Yurralyi Maya Power Station,WA,2150682.0,597412.0,Gas,2017-2018,-20.7637215,116.7427853,False
355,PIONEER SAIL HOLDINGS PTY LIMITED,Bairnsdale Power Station,VIC,938097.0,260583.0,Gas,2017-2018,-37.8428384,147.563966,False
356,PIONEER SAIL HOLDINGS PTY LIMITED,Braemar Power Station,QLD,1527900.0,424417.0,Coal Seam Methane,2017-2018,-27.1107842,150.9054673,False
357,PIONEER SAIL HOLDINGS PTY LIMITED,Loy Yang B Power Station,VIC,31933714.0,8870476.0,Brown Coal,2017-2018,-38.2567843,146.5860271,False
358,PIONEER SAIL HOLDINGS PTY LIMITED,Newman Power Station,WA,879617.0,244338.0,Gas,2017-2018,-23.3574915,119.7303373,False
359,PIONEER SAIL HOLDINGS PTY LIMITED,Port Hedland Power Station,WA,1868227.0,518952.0,Gas,2017-2018,-20.4280016,118.5502998,False
360,PIONEER SAIL HOLDINGS PTY LIMITED,Wagerup Power Station,WA,1193965.0,331657.0,Gas,2017-2018,-32.9160782,115.918999,False
362,POWER AND WATER CORPORATION,Alpurrurulam (Lake Nash),NT,5764.0,1601.0,Diesel,2017-2018,-20.9841916,137.847666,False
363,POWER AND WATER CORPORATION,Amanbidgi (Kildurk),NT,932.0,259.0,Diesel,2017-2018,-16.1847598,129.6406866,False
364,POWER AND WATER CORPORATION,Ampilatwatja (Alparra Ammaroo),NT,13015.0,3615.0,Diesel,2017-2018,-21.752029,135.236099,False
365,POWER AND WATER CORPORATION,Amunturangu (Mount Liebig),NT,2939.0,816.0,Diesel,2017-2018,-23.2659591,131.2722316,False
366,POWER AND WATER CORPORATION,Aputula (Finke),NT,3489.0,969.0,Diesel,2017-2018,-25.5821522,134.5779806,False
367,POWER AND WATER CORPORATION,Areyonga (Utju),NT,3889.0,1080.0,Diesel,2017-2018,-24.0734645,132.2693601,False
368,POWER AND WATER CORPORATION,Atitjere (Harts Range),NT,3425.0,951.0,Diesel,2017-2018,-22.9856011,134.9351115,False
369,POWER AND WATER CORPORATION,Borroloola Generation,NT,22877.0,6355.0,Diesel,2017-2018,-16.070278,136.307222,False
370,POWER AND WATER CORPORATION,Bulla Camp,NT,1506.0,418.0,Diesel,2017-2018,-15.768853,130.039341,False
371,POWER AND WATER CORPORATION,Bulman,NT,4267.0,1185.0,Diesel,2017-2018,-13.663028,134.3317308,False
372,POWER AND WATER CORPORATION,Daly Waters Generation,NT,4120.0,1144.0,Diesel,2017-2018,-16.253333,133.369167,False
374,POWER AND WATER CORPORATION,Engawala (Alcoota),NT,1949.0,541.0,Diesel,2017-2018,-22.8036906,134.4554661,False
375,POWER AND WATER CORPORATION,Epenarra (Wutunugurra),NT,2731.0,759.0,Diesel,2017-2018,-20.4626041,135.2512773,False
376,POWER AND WATER CORPORATION,Eva Valley,NT,1318.0,366.0,Diesel,2017-2018,-13.1298444,131.0142497,False
377,POWER AND WATER CORPORATION,Galiwinku (Elcho Island),NT,25193.0,6998.0,Diesel,2017-2018,-12.0230106,135.5657089,False
378,POWER AND WATER CORPORATION,Gapuwiyak (Lake Evella),NT,10934.0,3037.0,Diesel,2017-2018,-12.4993009,135.8062133,False
379,POWER AND WATER CORPORATION,Gunbalanya (Oenpelli),NT,18396.0,5110.0,Diesel,2017-2018,-12.32825,133.056,False
380,POWER AND WATER CORPORATION,Ikuntji (Haasts Bluff),NT,2553.0,709.0,Diesel,2017-2018,-23.4471526,131.8822091,False
381,POWER AND WATER CORPORATION,Imangara (Murray Downs),NT,1071.0,298.0,Diesel,2017-2018,-21.0492276,134.6804761,False
382,POWER AND WATER CORPORATION,Imanpa (Mount Ebenezer),NT,2234.0,621.0,Diesel,2017-2018,-25.1019444,132.5716667,False
383,POWER AND WATER CORPORATION,Kalkaringi (Wave Hill),NT,9548.0,2652.0,Diesel,2017-2018,-17.4480442,130.8310031,False
384,POWER AND WATER CORPORATION,Kaltukatjara (Docker River),NT,5592.0,1553.0,Diesel,2017-2018,-24.8804857,129.0792084,False
385,POWER AND WATER CORPORATION,Lajamanu (Hooker Creek),NT,11771.0,3270.0,Diesel,2017-2018,-18.3365,130.636993,False
386,POWER AND WATER CORPORATION,Laramba (Napperby),NT,3462.0,962.0,Diesel,2017-2018,-22.5338603,132.754989,False
387,POWER AND WATER CORPORATION,Maningrida,NT,31719.0,8811.0,Diesel,2017-2018,-12.0551674,134.2313799,False
388,POWER AND WATER CORPORATION,Milikapiti (Snake Bay),NT,7499.0,2083.0,Diesel,2017-2018,-11.4227161,130.6530109,False
389,POWER AND WATER CORPORATION,Milingimbi,NT,13378.0,3716.0,Diesel,2017-2018,-12.0939133,134.8973049,False
390,POWER AND WATER CORPORATION,Milyakburra (Bickerton Island),NT,3233.0,898.0,Diesel,2017-2018,-13.7832463,136.1961739,False
391,POWER AND WATER CORPORATION,Minjilang (Croker Island),NT,4974.0,1382.0,Diesel,2017-2018,-11.1475753,132.5767751,False
392,POWER AND WATER CORPORATION,Minyerri (Hodgson Downs),NT,8366.0,2324.0,Diesel,2017-2018,-15.2254373,134.0797815,False
393,POWER AND WATER CORPORATION,Nauiyu Nambiyu (Daly River),NT,11550.0,3208.0,Diesel,2017-2018,-13.7121487,130.6885652,False
394,POWER AND WATER CORPORATION,Nguiu (Bathurst Island),NT,24394.0,6776.0,Diesel,2017-2018,-11.7619227,130.6317972,False
395,POWER AND WATER CORPORATION,Ngukurr (Roper River),NT,16495.0,4582.0,Diesel,2017-2018,-14.733834,134.7322863,False
396,POWER AND WATER CORPORATION,Numbulwar (Rose River),NT,10635.0,2954.0,Diesel,2017-2018,-14.2770418,135.7210604,False
397,POWER AND WATER CORPORATION,Nyirripi (Waite Creek),NT,3660.0,1017.0,Diesel,2017-2018,-22.6499244,130.5524637,False
398,POWER AND WATER CORPORATION,Orwaitilla (Canteen Creek),NT,3552.0,987.0,Diesel,2017-2018,-20.6440035,135.587927,False
399,POWER AND WATER CORPORATION,Palumpa,NT,5382.0,1495.0,Diesel,2017-2018,-14.3523927,129.8822501,False
400,POWER AND WATER CORPORATION,Papunya,NT,6812.0,1892.0,Diesel,2017-2018,-23.2053323,131.9112738,False
401,POWER AND WATER CORPORATION,Peppimenarti,NT,4284.0,1190.0,Diesel,2017-2018,-14.1501858,130.0762599,False
402,POWER AND WATER CORPORATION,Pidgeon Hole,NT,1731.0,481.0,Diesel,2017-2018,-16.8148579,131.2196946,False
403,POWER AND WATER CORPORATION,Pirlangimpi (Garden Point),NT,7098.0,1972.0,Diesel,2017-2018,-11.405157,130.4173321,False
404,POWER AND WATER CORPORATION,Ramingining,NT,11699.0,3250.0,Diesel,2017-2018,-12.3285681,134.9280587,False
405,POWER AND WATER CORPORATION,Robinson River,NT,4182.0,1162.0,Diesel,2017-2018,-16.15791413711197,137.1753049032663,False
406,POWER AND WATER CORPORATION,Tara (Neutral Junction),NT,1211.0,336.0,Diesel,2017-2018,-21.52354,133.989594,False
407,POWER AND WATER CORPORATION,Ti Tree Generation,NT,8345.0,2318.0,Diesel,2017-2018,-22.1291783,133.4161598,False
408,POWER AND WATER CORPORATION,Timber Creek,NT,10771.0,2992.0,Diesel,2017-2018,-15.6458527,130.4668349,False
409,POWER AND WATER CORPORATION,Titjikala (Maryvale),NT,3951.0,1098.0,Diesel,2017-2018,-24.674782,134.0764527,False
410,POWER AND WATER CORPORATION,Umbakumba,NT,9152.0,2542.0,Diesel,2017-2018,-13.8616879,136.8117295,False
411,POWER AND WATER CORPORATION,Wadeye (Port Keats),NT,34017.0,9449.0,Gas,2017-2018,-14.250637,129.549659,False
412,POWER AND WATER CORPORATION,Walungurru (Kintore),NT,6754.0,1876.0,Diesel,2017-2018,-23.2824005,129.3914989,False
413,POWER AND WATER CORPORATION,Warruwi (Goulburn Is),NT,6599.0,1833.0,Diesel,2017-2018,-11.6511842,133.3885099,False
414,POWER AND WATER CORPORATION,Wilora (Stirling),NT,1242.0,345.0,Diesel,2017-2018,-21.7404613,133.7311459,False
415,POWER AND WATER CORPORATION,Wirliyatjarrayi (Willowra),NT,3591.0,998.0,Diesel,2017-2018,-21.2471627,132.6105377,False
416,POWER AND WATER CORPORATION,Yarralin,NT,4822.0,1339.0,Diesel,2017-2018,-16.4474276,130.8837408,False
417,POWER AND WATER CORPORATION,Yuendumu,NT,19228.0,5341.0,Diesel,2017-2018,-22.2539566,131.7953883,False
419,POWER GENERATION CORPORATION,Channel Island Power Station,NT,3826034.0,1062787.0,Gas,2017-2018,-12.5550166,130.8663184,False
420,POWER GENERATION CORPORATION,Katherine Power Station,NT,71615.0,19893.0,Gas,2017-2018,-19.4914108,132.5509603,False
421,POWER GENERATION CORPORATION,Kings Canyon,NT,4032.0,1120.0,Solar,2017-2018,-24.2552941,131.5700131,True
422,POWER GENERATION CORPORATION,Owen Springs Power Station,NT,268834.0,74676.0,Gas,2017-2018,-23.8632482,133.8253457,False
423,POWER GENERATION CORPORATION,Ron Goodin Power Station,NT,453701.0,126028.0,Gas,2017-2018,-19.4914108,132.5509603,False
424,POWER GENERATION CORPORATION,Tennant Creek Power Station,NT,104958.0,29155.0,Gas,2017-2018,-19.64591,134.1909565,False
425,POWER GENERATION CORPORATION,Weddell Power Station,NT,1310487.0,364024.0,Gas,2017-2018,-12.5772143,130.9502033,False
426,POWER GENERATION CORPORATION,Yulara Power Station,NT,70409.0,19558.0,Gas,2017-2018,-25.2320231,130.9913732,False
428,PRATT CONSOLIDATED HOLDINGS PTY. LTD.,Visy Energy - Coolaroo Co-gen,VIC,66477.0,18466.0,Biofuel,2017-2018,-37.6612312,144.9370304,True
429,PRATT CONSOLIDATED HOLDINGS PTY. LTD.,Visy Power Generation - Smithfield Energy Facility,NSW,16689.0,4636.0,Gas,2017-2018,-33.8499781,150.9486894,False
431,QGC UPSTREAM INVESTMENTS PTY LTD ,Condamine Power Station,QLD,3058063.0,849462.0,Gas,2017-2018,-26.6681504,150.270009,False
433,RATCH - AUSTRALIA CORPORATION LIMITED,Kemerton Power Station,WA,250045.0,69457.0,Gas,2017-2018,-33.1633786,115.7807467,False
435,RATCH - AUSTRALIA CORPORATION LIMITED,Toora Wind Farm,VIC,177373.0,49270.0,Wind,2017-2018,-38.6534438,146.3402295,True
436,RATCH - AUSTRALIA CORPORATION LIMITED,Townsville Power Station,QLD,877378.0,243716.0,Coal Seam Methane,2017-2018,-19.20158,146.6183471,False
437,RATCH - AUSTRALIA CORPORATION LIMITED,Windy Hill Wind Farm,QLD,108987.0,30274.0,Wind,2017-2018,-17.5945918,145.5313612,True
439,REGIONAL POWER CORPORATION,Carnarvon Power Station & Distribution network,WA,155505.0,43196.0,Gas,2017-2018,-24.8838363,113.6570584,False
440,REGIONAL POWER CORPORATION,Denham Power Station & Denham Distribution network,WA,14638.0,4066.0,Diesel,2017-2018,51.57877569999999,-0.4973433,False
441,REGIONAL POWER CORPORATION,Kalumburu Power Station & Distribution network,WA,7474.0,2076.0,Diesel,2017-2018,-14.2917439,126.646165,False
442,REGIONAL POWER CORPORATION,Kununurra Power Station & Kununurra Distribution network,WA,337.0,94.0,Diesel,2017-2018,-15.7783483,128.7439001,False
443,REGIONAL POWER CORPORATION,Marble Bar Power Station & Marble Bar Distribution network,WA,8074.0,2243.0,Diesel,2017-2018,-21.1802046,119.936303,False
444,REGIONAL POWER CORPORATION,Murchison Radio Astronomy Power Station and Distribution Network,WA,14385.0,3996.0,Diesel,2017-2018,47.7510741,-120.7401386,False
445,REGIONAL POWER CORPORATION,Nullagine Power Station & Nullagine Distribution network,WA,3850.0,1069.0,Diesel,2017-2018,-21.8864147,120.1080446,False
446,REGIONAL POWER CORPORATION,Onslow Power Station Horizon Power back-up & Onslow Distribtion Network,WA,23968.0,6658.0,Gas,2017-2018,-21.7765045,115.0831642,False
447,REGIONAL POWER CORPORATION,Wyndham Power Station & Distribution network,WA,489.0,136.0,Diesel,2017-2018,-27.6728168,121.6283098,False
448,REGIONAL POWER CORPORATION,Yungngora Power Station & Yungngora Distribution Network,WA,5871.0,1631.0,Diesel,2017-2018,-18.5015925,124.8277277,False
450,REGIONAL WIND FARMS PTY LTD,Wonthaggi Wind Farm,VIC,104304.0,28973.0,Wind,2017-2018,-38.6073719,145.547975,True
452,RENEWABLE POWER AUSTRALIA LIMITED,FPC Green Energy,QLD,273499.0,75972.0,Bagasse,2017-2018,-27.735318,153.327776,True
454,SANTOS LIMITED,Wilga Park Power Station,NSW,304096.0,84471.0,Coal Seam Methane,2017-2018,-30.3634841,149.6771233,False
456,SHENHUA CLEAN ENERGY HOLDINGS PTY LIMITED                                                           ,Musselroe Wind Farm Pty Ltd,TAS,2164720.0,601311.0,Wind,2017-2018,-40.7803916,148.0104827,True
457,SHENHUA CLEAN ENERGY HOLDINGS PTY LIMITED                                                           ,Woolnorth Bluff point Wind Farm Pty Ltd,TAS,897716.0,249366.0,Wind,2017-2018,-40.7396138,144.6893962,True
458,SHENHUA CLEAN ENERGY HOLDINGS PTY LIMITED                                                           ,Woolnorth Studland Bay Wind Farm Pty Ltd,TAS,1038241.0,288400.0,Wind,2017-2018,-40.7848399,144.7294621,True
460,SNOWTOWN SOUTH WIND FARM PTY. LTD.,SNOWTOWN SOUTH WIND FARM,SA,1657221.0,460339.0,Wind,2017-2018,-33.7809175,138.2149099,True
462,SNOWTOWN WIND FARM PTY LTD,Snowtown Wind Farm,SA,1277877.0,354966.0,Wind,2017-2018,-33.7140884,138.1408256,True
464,SNOWTOWN WIND FARM STAGE 2 PTY. LTD.,SNOWTOWN WIND FARM STAGE 2,SA,1684213.0,467837.0,Wind,2017-2018,-33.7140884,138.1408256,True
466,SNOWY HYDRO LIMITED,Angaston Power Station,SA,8000.0,2222.0,Diesel,2017-2018,-30.0002315,136.2091547,False
467,SNOWY HYDRO LIMITED,Colongra Power Station,NSW,54436.0,15121.0,Gas,2017-2018,-33.2094402,151.5457289,False
468,SNOWY HYDRO LIMITED,Laverton North Power Station,VIC,644421.0,179006.0,Gas,2017-2018,-37.8410186,144.7875213,False
469,SNOWY HYDRO LIMITED,Lonsdale/Port Stanvac Power Station,SA,17488.0,4858.0,Diesel,2017-2018,-35.1102132,138.4909081,False
470,SNOWY HYDRO LIMITED,Snowy Hydro Ltd,NSW,15661978.0,4350549.0,Hydro,2017-2018,-31.2532183,146.921099,True
473,SOLAR FARM INVESTMENTS PTY LTD,Moree Solar Farm ,NSW,557766.0,154935.0,Solar,2017-2018,-29.56119339999999,149.8624335,True
475,SPIC PACIFIC ENERGY PTY LTD,Challicum Hills Wind Farm ,VIC,477876.0,132743.0,Wind,2017-2018,-37.3887311,143.0775131,True
477,SPIC PACIFIC ENERGY PTY LTD,Codrington Wind Farm ,VIC,156907.0,43585.0,Wind,2017-2018,-38.2727138,141.9730619,True
478,SPIC PACIFIC ENERGY PTY LTD,Crowlands Wind Farm,VIC,421.0,117.0,Wind,2017-2018,-37.1263843,143.1559074,True
479,SPIC PACIFIC ENERGY PTY LTD,Eildon Pondage Hydro ,VIC,54693.0,15193.0,Hydro,2017-2018,-37.2429628,145.897452,True
480,SPIC PACIFIC ENERGY PTY LTD,Glenmaggie Hydro ,VIC,14580.0,4050.0,Hydro,2017-2018,-37.8758483,146.7174016,True
481,SPIC PACIFIC ENERGY PTY LTD,Ord Hydro ,WA,794832.0,220787.0,Hydro,2017-2018,-16.1200015,128.738173,True
482,SPIC PACIFIC ENERGY PTY LTD,Portland Wind Farms ,VIC,1655926.0,459979.0,Wind,2017-2018,-38.3644104,141.6251525,True
483,SPIC PACIFIC ENERGY PTY LTD,Taralga Wind Farm ,NSW,1084847.0,301346.0,Wind,2017-2018,-34.4237104,149.8258649,True
484,SPIC PACIFIC ENERGY PTY LTD,The Drop Hydro ,NSW,15493.0,4304.0,Hydro,2017-2018,-35.7761274,145.7533079,True
485,SPIC PACIFIC ENERGY PTY LTD,William Hovell Hydro ,VIC,14407.0,4002.0,Hydro,2017-2018,-36.9252158,146.3894175,True
486,SPIC PACIFIC ENERGY PTY LTD,Yaloak South Wind Farm ,VIC,129067.0,35852.0,Wind,2017-2018,-37.7164742,144.2419466,True
487,SPIC PACIFIC ENERGY PTY LTD,Yambuk Wind Farm ,VIC,326561.0,90711.0,Wind,2017-2018,-38.3644104,141.6251525,True
489,STANWELL CORPORATION LIMITED,Barron Gorge Power Station,QLD,554034.0,153898.0,Hydro,2017-2018,-16.8509999,145.6468624,True
490,STANWELL CORPORATION LIMITED,Kareeya Power Station,QLD,1621510.0,450419.0,Hydro,2017-2018,-17.767023,145.5780181,True
491,STANWELL CORPORATION LIMITED,Mackay Gas Turbine,QLD,683.0,190.0,Diesel,2017-2018,-21.1446265,149.1589441,False
492,STANWELL CORPORATION LIMITED,Mica Creek Power Station,QLD,435909.0,121086.0,Gas,2017-2018,-20.7784961,139.489875,False
493,STANWELL CORPORATION LIMITED,Stanwell Power Station,QLD,31695761.0,8804378.0,Black Coal,2017-2018,-23.5091325,150.3208166,False
494,STANWELL CORPORATION LIMITED,Swanbank E Power Station,QLD,2416169.0,671158.0,Gas,2017-2018,-27.6552772,152.8182067,False
495,STANWELL CORPORATION LIMITED,Tarong Power Stations,QLD,43557325.0,12099257.0,Black Coal,2017-2018,-26.7813053,151.9144592,False
497,SUNSET POWER INTERNATIONAL PTY LTD,Vales Point Power Station,NSW,29025803.0,8062723.0,Black Coal,2017-2018,-33.1620493,151.5407221,False
499,SWF1 OPERATIONS HOLDINGS PTY LTD,SWF 1 Operations Holdings Pty Ltd,NSW,266253.0,73959.0,Wind,2017-2018,-31.2532183,146.921099,True
501,SYNERGEN POWER PTY LIMITED,Dry Creek Power Station,SA,38614.0,10726.0,Gas,2017-2018,-34.8474882,138.5818107,False
502,SYNERGEN POWER PTY LIMITED,Mintaro Power Station,SA,152219.0,42283.0,Gas,2017-2018,-33.9181674,138.7232044,False
503,SYNERGEN POWER PTY LIMITED,Port Lincoln Power Station,SA,6022.0,1673.0,Diesel,2017-2018,-34.7226381,135.8597449,False
504,SYNERGEN POWER PTY LIMITED,Snuggery Power Station,SA,2678.0,744.0,Diesel,2017-2018,-30.0002315,136.2091547,False
508,TRANSALTA ENERGY (AUSTRALIA) PTY LTD,Kalgoorlie Power Station,WA,935310.0,259808.0,Gas,2017-2018,-30.749,121.466,False
509,TRANSALTA ENERGY (AUSTRALIA) PTY LTD,Kambalda Power Station,WA,966932.0,268592.0,Gas,2017-2018,-31.201572,121.662514,False
510,TRANSALTA ENERGY (AUSTRALIA) PTY LTD,Leinster Power Station,WA,900097.0,250027.0,Gas,2017-2018,-27.9160091,120.6991137,False
511,TRANSALTA ENERGY (AUSTRALIA) PTY LTD,Mt Keith Power Station,WA,1543160.0,428656.0,Gas,2017-2018,-27.281731,120.501701,False
512,TRANSALTA ENERGY (AUSTRALIA) PTY LTD,Solomon Power Station,WA,334016.0,92782.0,Gas,2017-2018,-27.6728168,121.6283098,False
513,TRANSALTA ENERGY (AUSTRALIA) PTY LTD,South Hedland Power Station,WA,1542652.0,428514.0,Gas,2017-2018,-20.4072579,118.5965289,False
515,WATER CORPORATION,Cocos Keeling Islands - Home Island Generation,WA,8913.0,2476.0,Diesel,2017-2018,-12.1178984,96.8967258,False
516,WATER CORPORATION,Cocos Keeling Islands - West Island Generation,WA,8948.0,2486.0,Diesel,2017-2018,-12.1450486,96.82170169999999,False
518,WEIPA SOLAR FARM PTY LTD,Weipa Solar Power Station,QLD,3115.0,865.0,Solar,2017-2018,-12.6492936,141.8469901,True
520,YARA AUSTRALIA PTY LTD,YPF UTILITIES PRODUCTION AND SUPPLY,WA,96155.0,26710.0,Gas,2017-2018,-27.6728168,121.6283098,False
1,ACCIONA ENERGY OCEANIA PTY LTD,Gunning Wind Farm,NSW,575522.0,159867.0,Wind,2020-2021,-34.6905625,149.4270092,True
2,ACCIONA ENERGY OCEANIA PTY LTD,Mt Gellibrand Wind Farm,VIC,1018498.0,282916.0,Wind,2020-2021,-38.2327778,143.7922222,True
3,ACCIONA ENERGY OCEANIA PTY LTD,Waubra Wind Farm,VIC,2339624.0,649896.0,Wind,2020-2021,-37.3946388,143.6386011,True
5,ADANI RENEWABLE ASSET HOLDINGS PTY LTD,Adani Rugby Run Solar Farm,QLD,587856.0,163293.0,Solar,2020-2021,-22.575197,144.0847926,True
7,AGL ENERGY LIMITED,Banimboola Hydro,VIC,7240.0,2011.0,Hydro,2020-2021,-36.5335771,147.4603458,True
8,AGL ENERGY LIMITED,Barker Inlet Power Station,SA,1391597.0,386555.0,Gas,2020-2021,-34.8043219,138.5249106,False
9,AGL ENERGY LIMITED,Bayswater Power Station,NSW,51517714.0,14310476.0,Black Coal,2020-2021,-32.3925781,150.9490509,False
10,AGL ENERGY LIMITED,Bogong Power Station,VIC,314481.0,87356.0,Hydro,2020-2021,-36.8057885,147.2281158,True
11,AGL ENERGY LIMITED,Broken Hill Solar Plant,NSW,408929.0,113591.0,Solar,2020-2021,-31.985972,141.3929982,True
13,AGL ENERGY LIMITED,Copeton Hydro,NSW,33585.0,9329.0,Hydro,2020-2021,-29.8466241,150.8866281,True
14,AGL ENERGY LIMITED,Dartmouth Hydro,VIC,153275.0,42576.0,Hydro,2020-2021,-36.5324694,147.4961766,True
15,AGL ENERGY LIMITED,Eildon Hydro,VIC,401140.0,111428.0,Hydro,2020-2021,-37.2345677,145.9089916,True
16,AGL ENERGY LIMITED,Glenbawn Hydro,NSW,123.0,34.0,Hydro,2020-2021,-32.1080329,150.985732,True
21,AGL ENERGY LIMITED,Hunter Valley Gas Turbines,NSW,0.0,0.0,Gas,2020-2021,-32.1932173,151.700565,False
22,AGL ENERGY LIMITED,Kwinana Swift Power Station,WA,124238.0,34511.0,Gas,2020-2021,-32.2320792,115.7787256,False
23,AGL ENERGY LIMITED,Liddell Power Station,NSW,26305616.0,7307116.0,Black Coal,2020-2021,-32.3715056,150.9773385,False
24,AGL ENERGY LIMITED,Loy Yang Power Station and Mine,VIC,59031839.0,16397733.0,Brown Coal,2020-2021,-38.2537069,146.5756631,False
25,AGL ENERGY LIMITED,Macarthur Wind Farm,VIC,2641871.0,733853.0,Wind,2020-2021,-38.0490795,142.1915163,True
26,AGL ENERGY LIMITED,McKay Creek Hydro,VIC,386791.0,107442.0,Hydro,2020-2021,45.5250549,-123.0049896,True
27,AGL ENERGY LIMITED,Nyngan Solar Plant,NSW,840121.0,233367.0,Solar,2020-2021,-31.5662057,147.0707349,True
28,AGL ENERGY LIMITED,Oaklands Hill Wind Farm,VIC,630310.0,175086.0,Wind,2020-2021,-37.683252,142.551115,True
29,AGL ENERGY LIMITED,Rubicon Hydro Scheme,VIC,0.0,0.0,Hydro,2020-2021,-37.3259849,145.8614196,True
30,AGL ENERGY LIMITED,Silverton Wind Farm,NSW,2826436.0,785121.0,Wind,2020-2021,-31.86094989999999,141.2963491,True
32,AGL ENERGY LIMITED,Torrens Island Power Station,SA,6008329.0,1668980.0,Gas,2020-2021,-34.8065986,138.5231933,False
33,AGL ENERGY LIMITED,Wattle Point Wind Farm,SA,950951.0,264153.0,Wind,2020-2021,-35.1117422,137.7212617,True
35,AGL ENERGY LIMITED,Yarrawonga Hydro,VIC,156774.0,43548.0,Hydro,2020-2021,-36.0260723,146.0003241,True
36,AGL ENERGY LIMITED,Burrendong Hydro,NSW,43303.0,12029.0,Hydro,2020-2021,-32.6801776,149.1386215,True
37,AGL ENERGY LIMITED,Pindari Hydro,NSW,0.0,0.0,Hydro,2020-2021,-29.515155,151.288486,True
39,ALCOA AUSTRALIAN HOLDINGS PTY LTD,Alinta Pinjarra Generation Facility,WA,5739815.0,1594393.0,Gas,2020-2021,-32.6462926,115.9464342,False
41,APT PIPELINES LIMITED,Badgingarra Solar Farm,WA,108451.0,30125.0,Solar,2020-2021,-30.3988319,115.5547078,True
42,APT PIPELINES LIMITED,Badgingarra Wind Farm,WA,1701835.0,472732.0,Wind,2020-2021,-30.4100818,115.3200753,True
43,APT PIPELINES LIMITED,Daandine Power Station,QLD,406375.0,112882.0,Coal Seam Methane,2020-2021,-27.0861935,150.9425679,False
44,APT PIPELINES LIMITED,Darling Downs Solar Farm,QLD,755182.0,209773.0,Wind,2020-2021,-27.1212889,150.8943801,True
45,APT PIPELINES LIMITED,Diamantina Power Station,QLD,6884574.0,1912382.0,Gas,2020-2021,-20.7830295,139.4829711,False
46,APT PIPELINES LIMITED,Emu Downs Solar Farm,WA,173545.0,48207.0,Solar,2020-2021,-30.48468,115.415795,True
47,APT PIPELINES LIMITED,Emu Downs Wind Farm,WA,883949.0,245541.0,Wind,2020-2021,-30.4756515,115.381241,True
49,ARROW ENERGY HOLDINGS PTY LTD,Braemar 2 Power Station,QLD,1475610.0,409892.0,Coal Seam Methane,2020-2021,-27.1107842,150.9054673,False
51,ATCO AUSTRALIA PTY LTD,Karratha Power Station,WA,513078.0,142522.0,Gas,2020-2021,-20.7336955,116.8447057,False
56,BALD HILLS WF HOLDINGS PTY LTD,Bald Hills Wind Farm Pty Ltd,VIC,1228860.0,341350.0,Wind,2020-2021,-38.7478299,145.9494813,True
58,BEI WWF PTY LTD,Warradarge Wind Farm,WA,1797588.0,499330.0,Wind,2020-2021,-30.0578671,115.3296682,True
60,BEIJING JINGNENG CLEAN ENERGY (AUSTRALIA) HOLDING PTY LTD,Gullen Solar Pty Ltd,NSW,67807.0,18835.0,Solar,2020-2021,-34.605567,149.4626469,True
61,BEIJING JINGNENG CLEAN ENERGY (AUSTRALIA) HOLDING PTY LTD,New Gullen Range Wind Farm Pty Ltd,NSW,1818406.0,505113.0,Wind,2020-2021,-33.863638,151.2049168,True
62,BEIJING JINGNENG CLEAN ENERGY (AUSTRALIA) HOLDING PTY LTD,Newtricity Developments Biala Pty Ltd,NSW,311838.0,86622.0,Wind,2020-2021,-34.6217632,149.2364477,True
64,BHP GROUP LIMITED,Yarnima Power Station,WA,2691050.0,747514.0,Gas,2020-2021,-23.3435575,119.7109647,False
66,BLUEWATERS POWER 1 PTY LTD,Bluewaters Power 1,WA,5808996.0,1613610.0,Black Coal,2020-2021,-33.3297691,116.2265472,False
68,BLUEWATERS POWER 2 PTY LTD,Bluewaters Power 2,WA,6083427.0,1689841.0,Black Coal,2020-2021,-33.3297691,116.2265472,False
70,C S ENERGY LIMITED,Callide B Power Station,QLD,11317007.0,3143613.0,Black Coal,2020-2021,-24.2927187,150.4933758,False
71,C S ENERGY LIMITED,Callide C Power Station,QLD,18205965.0,5057213.0,Black Coal,2020-2021,-24.2927187,150.4933758,False
72,C S ENERGY LIMITED,Kogan Creek Power Station,QLD,18428566.0,5119046.0,Black Coal,2020-2021,-26.9146137,150.746994,False
74,CAPE BYRON MANAGEMENT PTY LTD,Broadwater Power Plant,NSW,698416.0,194005.0,Bagasse,2020-2021,-29.0145838,153.4300366,True
75,CAPE BYRON MANAGEMENT PTY LTD,Condong Power Plant,NSW,593907.0,164974.0,Bagasse,2020-2021,-28.3117883,153.4363815,True
79,CECEP WIND POWER AUSTRALIA HOLDING PTY LTD,White Rock Wind Farm Pty Ltd,NSW,1825006.0,506946.0,Wind,2020-2021,-29.7624218,151.5447433,True
81,CK WILLIAM AUSTRALIA HOLDINGS PTY LTD,Appin CSM Power Station,NSW,899023.0,249729.0,Waste Coal Mine Gas,2020-2021,-34.200914,150.7874904,False
82,CK WILLIAM AUSTRALIA HOLDINGS PTY LTD,Ardyaloon Facility,WA,7351.0,2042.0,Diesel,2020-2021,-16.4469782,123.0597129,False
83,CK WILLIAM AUSTRALIA HOLDINGS PTY LTD,Beagle Bay Facility,WA,6767.0,1880.0,Diesel,2020-2021,-16.9830116,122.6651831,False
84,CK WILLIAM AUSTRALIA HOLDINGS PTY LTD,Belrose LFG Power Station,NSW,349.0,97.0,Landfill Gas,2020-2021,-33.72828990000001,151.2179132,True
85,CK WILLIAM AUSTRALIA HOLDINGS PTY LTD,Berwick LFG Power Station,VIC,34600.0,9611.0,Landfill Gas,2020-2021,-38.0309443,145.3437469,True
86,CK WILLIAM AUSTRALIA HOLDINGS PTY LTD,Bidyadanga Facility,WA,10339.0,2872.0,Diesel,2020-2021,-18.6844063,121.7777973,False
87,CK WILLIAM AUSTRALIA HOLDINGS PTY LTD,Broadmeadows LFG Power Station,VIC,42580.0,11828.0,Landfill Gas,2020-2021,-37.6858788,144.9246674,True
88,CK WILLIAM AUSTRALIA HOLDINGS PTY LTD,Brooklyn LFG Power Station,VIC,29263.0,8129.0,Landfill Gas,2020-2021,-37.8173492,144.8465361,True
89,CK WILLIAM AUSTRALIA HOLDINGS PTY LTD,Broome LNG Power Station,WA,499610.0,138780.0,Gas,2020-2021,-17.96182,122.236998,False
90,CK WILLIAM AUSTRALIA HOLDINGS PTY LTD,Browns Plains LFG Power Station,QLD,55301.0,15361.0,Landfill Gas,2020-2021,-27.6624358,153.0527734,True
91,CK WILLIAM AUSTRALIA HOLDINGS PTY LTD,Clayton LFG Power Station,VIC,294790.0,81886.0,Landfill Gas,2020-2021,-37.9145479,145.127492,True
92,CK WILLIAM AUSTRALIA HOLDINGS PTY LTD,Coober Pedy Facility,SA,63400.0,17611.0,Wind,2020-2021,-29.013516,134.7544219,True
94,CK WILLIAM AUSTRALIA HOLDINGS PTY LTD,Cullerin Range Wind Farm,NSW,250956.0,69710.0,Wind,2020-2021,-34.8180225,149.399069,True
95,CK WILLIAM AUSTRALIA HOLDINGS PTY LTD,Derby LNG Power Station,WA,122307.0,33974.0,Gas,2020-2021,-17.309288,123.6401839,False
96,CK WILLIAM AUSTRALIA HOLDINGS PTY LTD,Djarindjin Facility,WA,6335.0,1760.0,Diesel,2020-2021,-16.514329,122.895699,False
97,CK WILLIAM AUSTRALIA HOLDINGS PTY LTD,Eastern Creek LFG Power Station,NSW,25001.0,6945.0,Landfill Gas,2020-2021,-33.8102184,150.85064,True
98,CK WILLIAM AUSTRALIA HOLDINGS PTY LTD,Fitzroy Crossing LNG Power Station,WA,51094.0,14193.0,Gas,2020-2021,-18.19797,125.5670892,False
99,CK WILLIAM AUSTRALIA HOLDINGS PTY LTD,Gascoyne Facility,WA,2388.0,663.0,Diesel,2020-2021,-24.5453479,115.2837585,False
100,CK WILLIAM AUSTRALIA HOLDINGS PTY LTD,German Creek CMM Power Station,QLD,1024971.0,284714.0,Waste Coal Mine Gas,2020-2021,-25.47614107456473,152.8968730508393,False
101,CK WILLIAM AUSTRALIA HOLDINGS PTY LTD,Glennies Creek WCMG Power Station,NSW,331564.0,92101.0,Waste Coal Mine Gas,2020-2021,-32.4612156,151.1069328,False
102,CK WILLIAM AUSTRALIA HOLDINGS PTY LTD,Grange Avenue LFG Power Station,NSW,16149.0,4486.0,Landfill Gas,2020-2021,-33.701442,150.8513512,True
103,CK WILLIAM AUSTRALIA HOLDINGS PTY LTD,Grosvenor 1 WCMG Power Station,QLD,510305.0,141752.0,Waste Coal Mine Gas,2020-2021,-25.4280672,151.1771816,False
104,CK WILLIAM AUSTRALIA HOLDINGS PTY LTD,Grosvenor 2 WCMG Power Station,QLD,345750.0,96042.0,Waste Coal Mine Gas,2020-2021,-25.4280672,151.1771816,False
105,CK WILLIAM AUSTRALIA HOLDINGS PTY LTD,Halls Creek LNG Power Station,WA,42069.0,11686.0,Gas,2020-2021,-18.2229842,127.6701399,False
106,CK WILLIAM AUSTRALIA HOLDINGS PTY LTD,Jack's Gully LFG Power Station,NSW,32506.0,9029.0,Landfill Gas,2020-2021,-31.2532183,146.921099,True
107,CK WILLIAM AUSTRALIA HOLDINGS PTY LTD,Kalamunda Power Station,WA,0.0,0.0,Diesel,2020-2021,-31.9733275,116.0604722,False
108,CK WILLIAM AUSTRALIA HOLDINGS PTY LTD,Laverton Facility,WA,14461.0,4017.0,Diesel,2020-2021,-28.6259124,122.4014814,False
109,CK WILLIAM AUSTRALIA HOLDINGS PTY LTD,Leonora Facility,WA,29410.0,8170.0,Gas,2020-2021,-28.8849715,121.3309059,False
110,CK WILLIAM AUSTRALIA HOLDINGS PTY LTD,Looma NGD Power Station,WA,9087.0,2524.0,Diesel,2020-2021,-18.0398016,124.1493803,False
111,CK WILLIAM AUSTRALIA HOLDINGS PTY LTD,Lucas Heights 1 LFG Power Station,NSW,43250.0,12014.0,Landfill Gas,2020-2021,-34.0506403,150.9872444,True
112,CK WILLIAM AUSTRALIA HOLDINGS PTY LTD,Lucas Heights 2 LFG Power Station,NSW,418510.0,116253.0,Landfill Gas,2020-2021,-34.0506403,150.9872444,True
113,CK WILLIAM AUSTRALIA HOLDINGS PTY LTD,McArthur River Power Station,NT,1182344.0,328429.0,Gas,2020-2021,-16.11427123151219,136.3288903783971,False
114,CK WILLIAM AUSTRALIA HOLDINGS PTY LTD,Menzies Facility,WA,2251.0,625.0,Diesel,2020-2021,-29.6935575,121.0288851,False
115,CK WILLIAM AUSTRALIA HOLDINGS PTY LTD,Moranbah North CMM Power Station,QLD,1298272.0,360631.0,Waste Coal Mine Gas,2020-2021,-21.8853292,147.9657585,False
116,CK WILLIAM AUSTRALIA HOLDINGS PTY LTD,Mugga Lane LFG Power Station,ACT,0.0,0.0,Landfill Gas,2020-2021,-35.3739879,149.1324352,True
117,CK WILLIAM AUSTRALIA HOLDINGS PTY LTD,Oaky Creek II WCMG Power Station,QLD,334009.0,92780.0,Waste Coal Mine Gas,2020-2021,-28.1913043,152.9375365,False
118,CK WILLIAM AUSTRALIA HOLDINGS PTY LTD,Oaky Creek WCMG Power Station,QLD,281532.0,78203.0,Waste Coal Mine Gas,2020-2021,-28.1913043,152.9375365,False
119,CK WILLIAM AUSTRALIA HOLDINGS PTY LTD,Pine Creek A Power Station,NT,765667.0,212685.0,Gas,2020-2021,-13.8226918,131.8344229,False
120,CK WILLIAM AUSTRALIA HOLDINGS PTY LTD,Red Hill LFG Power Station,WA,77397.0,21499.0,Landfill Gas,2020-2021,-31.8548072,116.0538776,True
121,CK WILLIAM AUSTRALIA HOLDINGS PTY LTD,Springvale LFG Power Station,VIC,22268.0,6186.0,Landfill Gas,2020-2021,-37.9487211,145.1529433,True
122,CK WILLIAM AUSTRALIA HOLDINGS PTY LTD,Tahmoor WCMG Power Station,NSW,173792.0,48276.0,Waste Coal Mine Gas,2020-2021,-34.2246566,150.5929466,False
123,CK WILLIAM AUSTRALIA HOLDINGS PTY LTD,Tamala Park LFG Power Station,WA,117355.0,32599.0,Landfill Gas,2020-2021,-31.704321,115.7349162,True
124,CK WILLIAM AUSTRALIA HOLDINGS PTY LTD,Tower CSM Power Station,NSW,587770.0,163269.0,Waste Coal Mine Gas,2020-2021,-31.2532183,146.921099,False
125,CK WILLIAM AUSTRALIA HOLDINGS PTY LTD,Warmun Facility,WA,9427.0,2619.0,Diesel,2020-2021,-17.029704,128.2108177,False
